{"type":"FeatureCollection","features":[{"type":"Feature","properties":{"OBJECTID":2647,"unit_code":"MACA","name":"GIPSON #2 CEMETERY","feature_category":"Cemetery","comments":"GIPSON #2","GlobalID":"{4C4740C6-CEFD-4B1F-B5E9-C9EE84D312C1}","created_user":"DWARREN","created_date":1414418537000,"last_edited_user":"DWARREN","last_edited_date":1414418537000,"source_id":null,"source_name":null},"geometry":{"type":"Point","coordinates":[-86.1647634,37.2256235]}}
,
{"type":"Feature","properties":{"OBJECTID":2648,"unit_code":"MACA","name":"BLAIR CEMETERY","feature_category":"Cemetery","comments":"BLAIR","GlobalID":"{AC86F199-98C6-4ABD-9D57-13457C75A97A}","created_user":"DWARREN","created_date":1414418537000,"last_edited_user":"DWARREN","last_edited_date":1414418537000,"source_id":null,"source_name":null},"geometry":{"type":"Point","coordinates":[-86.1679941,37.2278293]}}
,
{"type":"Feature","properties":{"OBJECTID":2649,"unit_code":"MACA","name":"RITTER CEMETERY","feature_category":"Cemetery","comments":"RITTER","GlobalID":"{D5005507-8D36-45DE-BDD7-1F29549E7B4F}","created_user":"DWARREN","created_date":1414418537000,"last_edited_user":"DWARREN","last_edited_date":1414418537000,"source_id":null,"source_name":null},"geometry":{"type":"Point","coordinates":[-86.1478713,37.211254]}}
,
{"type":"Feature","properties":{"OBJECTID":2650,"unit_code":"MACA","name":"FURLONG CEMETERY","feature_category":"Cemetery","comments":"FURLONG","GlobalID":"{7150CCB2-BAAF-4067-9B71-5BF2511ACB90}","created_user":"DWARREN","created_date":1414418537000,"last_edited_user":"DWARREN","last_edited_date":1414418537000,"source_id":null,"source_name":null},"geometry":{"type":"Point","coordinates":[-86.1026951,37.1607115]}}
,
{"type":"Feature","properties":{"OBJECTID":2651,"unit_code":"MACA","name":"WOOLSEY CEMETERY","feature_category":"Cemetery","comments":"WOOLSEY","GlobalID":"{6DFFE04E-B273-44B6-AE72-49B5305C5512}","created_user":"DWARREN","created_date":1414418537000,"last_edited_user":"DWARREN","last_edited_date":1414418537000,"source_id":null,"source_name":null},"geometry":{"type":"Point","coordinates":[-86.1169088,37.141449]}}
,
{"type":"Feature","properties":{"OBJECTID":2652,"unit_code":"MACA","name":"DRY BRANCH CEMETERY","feature_category":"Cemetery","comments":"DRY BRANCH","GlobalID":"{FC540141-360E-4C5A-BC0E-E94AAD44A827}","created_user":"DWARREN","created_date":1414418537000,"last_edited_user":"DWARREN","last_edited_date":1414418537000,"source_id":null,"source_name":null},"geometry":{"type":"Point","coordinates":[-86.2287521,37.2071195]}}
,
{"type":"Feature","properties":{"OBJECTID":2653,"unit_code":"MACA","name":"BETTER MINARD CEMETERY","feature_category":"Cemetery","comments":"BETTER MINARD","GlobalID":"{42AFB8D1-7020-4493-A58A-A450C280853F}","created_user":"DWARREN","created_date":1414418537000,"last_edited_user":"DWARREN","last_edited_date":1414418537000,"source_id":null,"source_name":null},"geometry":{"type":"Point","coordinates":[-86.1380837,37.175691]}}
,
{"type":"Feature","properties":{"OBJECTID":2654,"unit_code":"MACA","name":"AGNES COATS","feature_category":"Cemetery","comments":"AGNES COATS","GlobalID":"{C996D31F-2863-465C-B7AE-988890FB2656}","created_user":"DWARREN","created_date":1414418537000,"last_edited_user":"DWARREN","last_edited_date":1414418537000,"source_id":null,"source_name":null},"geometry":{"type":"Point","coordinates":[-86.139138,37.1781318]}}
,
{"type":"Feature","properties":{"OBJECTID":2655,"unit_code":"MACA","name":"WILSON CEMETERY","feature_category":"Cemetery","comments":"WILSON","GlobalID":"{567F806F-9EBD-46CD-884F-59BD744DC01D}","created_user":"DWARREN","created_date":1414418537000,"last_edited_user":"DWARREN","last_edited_date":1414418537000,"source_id":null,"source_name":null},"geometry":{"type":"Point","coordinates":[-86.0931021,37.2082837]}}
,
{"type":"Feature","properties":{"OBJECTID":2656,"unit_code":"MACA","name":"FRANKLIN JOHNSON CEMETERY","feature_category":"Cemetery","comments":"FRANKLIN JOHNSON","GlobalID":"{F96AEA6A-BB5E-43BB-B247-02A543568CA3}","created_user":"DWARREN","created_date":1414418537000,"last_edited_user":"DWARREN","last_edited_date":1414418537000,"source_id":null,"source_name":null},"geometry":{"type":"Point","coordinates":[-86.0401493,37.2029828]}}
,
{"type":"Feature","properties":{"OBJECTID":2657,"unit_code":"MACA","name":"HAYDEN CEMETERY","feature_category":"Cemetery","comments":"HAYDEN","GlobalID":"{90CE0F9B-9A58-474C-8987-2642FE9CF1F1}","created_user":"DWARREN","created_date":1414418537000,"last_edited_user":"DWARREN","last_edited_date":1414418537000,"source_id":null,"source_name":null},"geometry":{"type":"Point","coordinates":[-86.0559011,37.0990361]}}
,
{"type":"Feature","properties":{"OBJECTID":2658,"unit_code":"MACA","name":"CRUMP CEMETERY","feature_category":"Cemetery","comments":"CRUMP","GlobalID":"{6CF9C00E-2ABF-4606-AF0F-126F59D2F9A3}","created_user":"DWARREN","created_date":1414418537000,"last_edited_user":"DWARREN","last_edited_date":1414418537000,"source_id":null,"source_name":null},"geometry":{"type":"Point","coordinates":[-86.1961212,37.2001464]}}
,
{"type":"Feature","properties":{"OBJECTID":2659,"unit_code":"MACA","name":"JAGGERS CEMETERY","feature_category":"Cemetery","comments":"JAGGERS","GlobalID":"{FBAF4473-7067-40BD-B97C-279CD51701A1}","created_user":"DWARREN","created_date":1414418537000,"last_edited_user":"DWARREN","last_edited_date":1414418537000,"source_id":null,"source_name":null},"geometry":{"type":"Point","coordinates":[-86.1870222,37.2402576]}}
,
{"type":"Feature","properties":{"OBJECTID":2660,"unit_code":"MACA","name":"OLD TEMPLE HILL CEMETERY","feature_category":"Cemetery","comments":"OLD TEMPLE HILL","GlobalID":"{E2DCB3EA-F885-41B6-AE67-6A0C66AE240F}","created_user":"DWARREN","created_date":1414418537000,"last_edited_user":"DWARREN","last_edited_date":1414418537000,"source_id":null,"source_name":null},"geometry":{"type":"Point","coordinates":[-86.2304577,37.2199758]}}
,
{"type":"Feature","properties":{"OBJECTID":2661,"unit_code":"MACA","name":"FITZGERALD #1 CEMETERY","feature_category":"Cemetery","comments":"FITZGERALD #1","GlobalID":"{DEF3745C-4553-4E27-AD37-ECA230733CA1}","created_user":"DWARREN","created_date":1414418537000,"last_edited_user":"DWARREN","last_edited_date":1414418537000,"source_id":null,"source_name":null},"geometry":{"type":"Point","coordinates":[-86.081424,37.2320335]}}
,
{"type":"Feature","properties":{"OBJECTID":2662,"unit_code":"MACA","name":"SMITHIE HUNT GRAVES","feature_category":"Cemetery","comments":"SMITHIE HUNT GRAVES","GlobalID":"{D7B30C05-391E-4194-9AF8-DB2AB46D5773}","created_user":"DWARREN","created_date":1414418537000,"last_edited_user":"DWARREN","last_edited_date":1414418537000,"source_id":null,"source_name":null},"geometry":{"type":"Point","coordinates":[-86.0806686,37.2051232]}}
,
{"type":"Feature","properties":{"OBJECTID":2663,"unit_code":"MACA","name":"DANIELS CEMETERY","feature_category":"Cemetery","comments":"DANIELS","GlobalID":"{EFF17EB2-EEA6-4BCD-A905-A86A47D87C30}","created_user":"DWARREN","created_date":1414418537000,"last_edited_user":"DWARREN","last_edited_date":1414418537000,"source_id":null,"source_name":null},"geometry":{"type":"Point","coordinates":[-86.0503347,37.2073476]}}
,
{"type":"Feature","properties":{"OBJECTID":2664,"unit_code":"MACA","name":"LITTLE HOPE BAPTIST CHURCH CEMETERY","feature_category":"Cemetery","comments":"LITTLE HOPE BAPTIST CHURCH","GlobalID":"{EDDFDA59-0680-405F-85F1-977C3B6DC0AA}","created_user":"DWARREN","created_date":1414418537000,"last_edited_user":"DWARREN","last_edited_date":1414418537000,"source_id":null,"source_name":null},"geometry":{"type":"Point","coordinates":[-86.0563352,37.1533348]}}
,
{"type":"Feature","properties":{"OBJECTID":2665,"unit_code":"MACA","name":"COX #2 CEMETERY","feature_category":"Cemetery","comments":"COX #2","GlobalID":"{8DE0737F-6B44-4488-AC65-244E0BDA096C}","created_user":"DWARREN","created_date":1414418537000,"last_edited_user":"DWARREN","last_edited_date":1414418537000,"source_id":null,"source_name":null},"geometry":{"type":"Point","coordinates":[-86.0551199,37.1558313]}}
,
{"type":"Feature","properties":{"OBJECTID":2666,"unit_code":"MACA","name":"PARKER CEMETERY","feature_category":"Cemetery","comments":"PARKER","GlobalID":"{72DC5931-A3EE-453D-AE94-5A1AAAC23E8E}","created_user":"DWARREN","created_date":1414418537000,"last_edited_user":"DWARREN","last_edited_date":1414418537000,"source_id":null,"source_name":null},"geometry":{"type":"Point","coordinates":[-86.1373211,37.1964964]}}
,
{"type":"Feature","properties":{"OBJECTID":2667,"unit_code":"MACA","name":"COX  #1 CEMETERY","feature_category":"Cemetery","comments":"COX  #1","GlobalID":"{D8032F29-CBEB-492A-AE1E-73BC2AEA86DF}","created_user":"DWARREN","created_date":1414418537000,"last_edited_user":"DWARREN","last_edited_date":1414418537000,"source_id":null,"source_name":null},"geometry":{"type":"Point","coordinates":[-86.0695381,37.1663735]}}
,
{"type":"Feature","properties":{"OBJECTID":2668,"unit_code":"MACA","name":"WHITE OAK CEMETERY","feature_category":"Cemetery","comments":"WHITE OAK","GlobalID":"{C9F57137-AE37-4504-A6A5-FD50AA15AEFD}","created_user":"DWARREN","created_date":1414418537000,"last_edited_user":"DWARREN","last_edited_date":1414418537000,"source_id":null,"source_name":null},"geometry":{"type":"Point","coordinates":[-86.0697003,37.2396767]}}
,
{"type":"Feature","properties":{"OBJECTID":2669,"unit_code":"MACA","name":"HOUCHIN CEMETERY","feature_category":"Cemetery","comments":"HOUCHIN","GlobalID":"{FB8E8E51-BA4A-4633-B2D1-8A2618FC14FD}","created_user":"DWARREN","created_date":1414418537000,"last_edited_user":"DWARREN","last_edited_date":1414418537000,"source_id":null,"source_name":null},"geometry":{"type":"Point","coordinates":[-86.2396972,37.2062964]}}
,
{"type":"Feature","properties":{"OBJECTID":2670,"unit_code":"MACA","name":"PLEASANT UNION CEMETERY","feature_category":"Cemetery","comments":"PLEASANT UNION","GlobalID":"{E6064768-8E55-4ECA-BE4D-D70880E372D3}","created_user":"DWARREN","created_date":1414418537000,"last_edited_user":"DWARREN","last_edited_date":1414418537000,"source_id":null,"source_name":null},"geometry":{"type":"Point","coordinates":[-86.0822283,37.1943403]}}
,
{"type":"Feature","properties":{"OBJECTID":2671,"unit_code":"MACA","name":"SAMUEL CUTLIFF GRAVE","feature_category":"Cemetery","comments":"SAMUEL CUTLIFF GRAVE","GlobalID":"{D5A84923-EE1C-437F-8FD6-DE1CA71DF0EF}","created_user":"DWARREN","created_date":1414418537000,"last_edited_user":"DWARREN","last_edited_date":1414418537000,"source_id":null,"source_name":null},"geometry":{"type":"Point","coordinates":[-86.0771434,37.1925576]}}
,
{"type":"Feature","properties":{"OBJECTID":2672,"unit_code":"MACA","name":"BROWN CEMETERY","feature_category":"Cemetery","comments":"BROWN","GlobalID":"{C97984F0-B720-4A44-9488-AA8C223C393F}","created_user":"DWARREN","created_date":1414418537000,"last_edited_user":"DWARREN","last_edited_date":1414418537000,"source_id":null,"source_name":null},"geometry":{"type":"Point","coordinates":[-86.0733655,37.2022506]}}
,
{"type":"Feature","properties":{"OBJECTID":2673,"unit_code":"MACA","name":"MANSFIELD CEMETERY","feature_category":"Cemetery","comments":"MANSFIELD","GlobalID":"{FD233425-1FDF-4F96-9A90-6CF94799E784}","created_user":"DWARREN","created_date":1414418537000,"last_edited_user":"DWARREN","last_edited_date":1414418537000,"source_id":null,"source_name":null},"geometry":{"type":"Point","coordinates":[-86.0573132,37.2248311]}}
,
{"type":"Feature","properties":{"OBJECTID":2674,"unit_code":"MACA","name":"UNKOWN","feature_category":"Cemetery","comments":" UNKNOWN GRAVE","GlobalID":"{A95EA520-3340-4713-8936-9AD99B6A2119}","created_user":"DWARREN","created_date":1414418537000,"last_edited_user":"DWARREN","last_edited_date":1414418537000,"source_id":null,"source_name":null},"geometry":{"type":"Point","coordinates":[-86.0516834,37.2162062]}}
,
{"type":"Feature","properties":{"OBJECTID":2675,"unit_code":"MACA","name":"MILES CEMETERY","feature_category":"Cemetery","comments":"MILES","GlobalID":"{8264049A-157E-43B1-8969-F44623678F1E}","created_user":"DWARREN","created_date":1414418537000,"last_edited_user":"DWARREN","last_edited_date":1414418537000,"source_id":null,"source_name":null},"geometry":{"type":"Point","coordinates":[-86.1266918,37.2329524]}}
,
{"type":"Feature","properties":{"OBJECTID":2676,"unit_code":"MACA","name":"BYNUM CEMETERY","feature_category":"Cemetery","comments":"BYNUM","GlobalID":"{B627F7A2-599B-414E-B31A-FBCFD2083516}","created_user":"DWARREN","created_date":1414418537000,"last_edited_user":"DWARREN","last_edited_date":1414418537000,"source_id":null,"source_name":null},"geometry":{"type":"Point","coordinates":[-86.1410835,37.231798]}}
,
{"type":"Feature","properties":{"OBJECTID":2677,"unit_code":"MACA","name":"HICKORY CABIN CEMETERY #1","feature_category":"Cemetery","comments":"HICKORY CABIN #1","GlobalID":"{4C578A78-211D-495D-8F96-54EAD986CCA1}","created_user":"DWARREN","created_date":1414418537000,"last_edited_user":"DWARREN","last_edited_date":1414418537000,"source_id":null,"source_name":null},"geometry":{"type":"Point","coordinates":[-86.1335745,37.2222456]}}
,
{"type":"Feature","properties":{"OBJECTID":2678,"unit_code":"MACA","name":"JOPPA BAPTIST CHURCH CEMETERY","feature_category":"Cemetery","comments":"JOPPA BAPTIST CHURCH","GlobalID":"{C6704D06-1AEF-4DB7-9352-F5FE25C79B6A}","created_user":"DWARREN","created_date":1414418537000,"last_edited_user":"DWARREN","last_edited_date":1414418537000,"source_id":null,"source_name":null},"geometry":{"type":"Point","coordinates":[-86.1353762,37.1628211]}}
,
{"type":"Feature","properties":{"OBJECTID":2679,"unit_code":"MACA","name":"LOCUST GROVE CEMETERY","feature_category":"Cemetery","comments":"LOCUST GROVE","GlobalID":"{8743C260-B52D-4BD0-9CD5-C7FCADB7C4A5}","created_user":"DWARREN","created_date":1414418537000,"last_edited_user":"DWARREN","last_edited_date":1414418537000,"source_id":null,"source_name":null},"geometry":{"type":"Point","coordinates":[-86.0694015,37.1345064]}}
,
{"type":"Feature","properties":{"OBJECTID":2680,"unit_code":"MACA","name":"OLD GUIDES CEMETERY","feature_category":"Cemetery","comments":"OLD GUIDES","GlobalID":"{7424EC23-DF46-4C48-A8E1-4D1B50D2B7D5}","created_user":"DWARREN","created_date":1414418537000,"last_edited_user":"DWARREN","last_edited_date":1414418537000,"source_id":null,"source_name":null},"geometry":{"type":"Point","coordinates":[-86.1054684,37.1867421]}}
,
{"type":"Feature","properties":{"OBJECTID":2681,"unit_code":"MACA","name":"MAMMOTH CAVE BAPTIST CHURCH CEMETERY","feature_category":"Cemetery","comments":"MAMMOTH CAVE BAPTIST CHURCH","GlobalID":"{70A92A65-F54F-42B1-88B5-BBB539B28791}","created_user":"DWARREN","created_date":1414418537000,"last_edited_user":"DWARREN","last_edited_date":1414418537000,"source_id":null,"source_name":null},"geometry":{"type":"Point","coordinates":[-86.07388,37.1978701]}}
,
{"type":"Feature","properties":{"OBJECTID":2682,"unit_code":"MACA","name":"LITTLE JORDAN CEMETERY","feature_category":"Cemetery","comments":"LITTLE JORDAN","GlobalID":"{234B2D2A-C286-4683-A62B-E5A54B1A3039}","created_user":"DWARREN","created_date":1414418537000,"last_edited_user":"DWARREN","last_edited_date":1414418537000,"source_id":null,"source_name":null},"geometry":{"type":"Point","coordinates":[-86.0801469,37.2334366]}}
,
{"type":"Feature","properties":{"OBJECTID":2683,"unit_code":"MACA","name":"WILKINS CEMETERY","feature_category":"Cemetery","comments":"WILKINS","GlobalID":"{170C4ECF-5169-42CE-AB21-B19125295106}","created_user":"DWARREN","created_date":1414418537000,"last_edited_user":"DWARREN","last_edited_date":1414418537000,"source_id":null,"source_name":null},"geometry":{"type":"Point","coordinates":[-86.1123817,37.2412855]}}
,
{"type":"Feature","properties":{"OBJECTID":2684,"unit_code":"MACA","name":"GOOD SPRINGS BAPTIST CHURCH CEMETERY","feature_category":"Cemetery","comments":"GOOD SPRINGS BAPTIST CHURCH","GlobalID":"{9F648229-1E2F-4F2B-A836-0A33EE231BAA}","created_user":"DWARREN","created_date":1414418537000,"last_edited_user":"DWARREN","last_edited_date":1414418537000,"source_id":null,"source_name":null},"geometry":{"type":"Point","coordinates":[-86.1477775,37.2087029]}}
,
{"type":"Feature","properties":{"OBJECTID":2685,"unit_code":"MACA","name":"TEMLE HILL CEMETERY","feature_category":"Cemetery","comments":"TEMLE HILL","GlobalID":"{B160DBE5-7E2D-467A-906D-2A78815B6F2C}","created_user":"DWARREN","created_date":1414418537000,"last_edited_user":"DWARREN","last_edited_date":1414418537000,"source_id":null,"source_name":null},"geometry":{"type":"Point","coordinates":[-86.2274917,37.2188156]}}
,
{"type":"Feature","properties":{"OBJECTID":2686,"unit_code":"MACA","name":"BROOKS CEMETERY","feature_category":"Cemetery","comments":"BROOKS","GlobalID":"{9DA2810E-63CA-4E4E-A646-3F6706D8777B}","created_user":"DWARREN","created_date":1414418537000,"last_edited_user":"DWARREN","last_edited_date":1414418537000,"source_id":null,"source_name":null},"geometry":{"type":"Point","coordinates":[-86.1985763,37.1940779]}}
,
{"type":"Feature","properties":{"OBJECTID":2687,"unit_code":"MACA","name":"ADWELL CEMETERY","feature_category":"Cemetery","comments":"ADWELL","GlobalID":"{E3670388-AAD8-4AA9-9FA7-448D5D5EC734}","created_user":"DWARREN","created_date":1414418537000,"last_edited_user":"DWARREN","last_edited_date":1414418537000,"source_id":null,"source_name":null},"geometry":{"type":"Point","coordinates":[-86.0594774,37.1955831]}}
,
{"type":"Feature","properties":{"OBJECTID":2688,"unit_code":"MACA","name":"SAND SPRINGS CEMETERY","feature_category":"Cemetery","comments":"SAND SPRINGS","GlobalID":"{1A660166-536C-4BF2-95D7-723801BD6A8C}","created_user":"DWARREN","created_date":1414418537000,"last_edited_user":"DWARREN","last_edited_date":1414418537000,"source_id":null,"source_name":null},"geometry":{"type":"Point","coordinates":[-86.155747,37.2320173]}}
,
{"type":"Feature","properties":{"OBJECTID":2689,"unit_code":"MACA","name":"FRANCE CEMETERY","feature_category":"Cemetery","comments":"FRANCE","GlobalID":"{6B7B0BA9-0662-48E8-9150-615ACE927DEE}","created_user":"DWARREN","created_date":1414418537000,"last_edited_user":"DWARREN","last_edited_date":1414418537000,"source_id":null,"source_name":null},"geometry":{"type":"Point","coordinates":[-86.0956239,37.1291524]}}
,
{"type":"Feature","properties":{"OBJECTID":2690,"unit_code":"MACA","name":"HOLTON CEMETERY","feature_category":"Cemetery","comments":"HOLTON","GlobalID":"{7DA2679A-7863-445B-BE54-35D918DF96CB}","created_user":"DWARREN","created_date":1414418537000,"last_edited_user":"DWARREN","last_edited_date":1414418537000,"source_id":null,"source_name":null},"geometry":{"type":"Point","coordinates":[-86.089408,37.2163911]}}
,
{"type":"Feature","properties":{"OBJECTID":2691,"unit_code":"MACA","name":"BRANSFORD CEMETERY","feature_category":"Cemetery","comments":"BRANSFORD","GlobalID":"{9328AABC-892F-492C-B32D-D40CCA5A943D}","created_user":"DWARREN","created_date":1414418537000,"last_edited_user":"DWARREN","last_edited_date":1414418537000,"source_id":null,"source_name":null},"geometry":{"type":"Point","coordinates":[-86.0841061,37.1997683]}}
,
{"type":"Feature","properties":{"OBJECTID":2692,"unit_code":"MACA","name":"SHACKLEFORD GRAVES","feature_category":"Cemetery","comments":"SHACKLEFORD GRAVES","GlobalID":"{B5F4CF79-8ABE-434E-A490-BC4CBCA078F4}","created_user":"DWARREN","created_date":1414418537000,"last_edited_user":"DWARREN","last_edited_date":1414418537000,"source_id":null,"source_name":null},"geometry":{"type":"Point","coordinates":[-86.0940968,37.1635292]}}
,
{"type":"Feature","properties":{"OBJECTID":2693,"unit_code":"MACA","name":"JAMES CEMETERY","feature_category":"Cemetery","comments":"JAMES","GlobalID":"{FC3114DC-F13A-47F0-87C5-4743EA568326}","created_user":"DWARREN","created_date":1414418537000,"last_edited_user":"DWARREN","last_edited_date":1414418537000,"source_id":null,"source_name":null},"geometry":{"type":"Point","coordinates":[-86.2552399,37.2030711]}}
,
{"type":"Feature","properties":{"OBJECTID":2694,"unit_code":"MACA","name":"POPLAR SPRINGS CEMETERY","feature_category":"Cemetery","comments":"POPLAR SPRINGS","GlobalID":"{4B3D680B-E5E0-4904-9A86-7E18C5D37419}","created_user":"DWARREN","created_date":1414418537000,"last_edited_user":"DWARREN","last_edited_date":1414418537000,"source_id":null,"source_name":null},"geometry":{"type":"Point","coordinates":[-86.2504915,37.2234437]}}
,
{"type":"Feature","properties":{"OBJECTID":2695,"unit_code":"MACA","name":"SLEMMONS-DAVIS CEMETERY","feature_category":"Cemetery","comments":"SLEMMONS-DAVIS","GlobalID":"{6B5CC416-3AB9-4FE1-9D56-2A00D7E4491A}","created_user":"DWARREN","created_date":1414418537000,"last_edited_user":"DWARREN","last_edited_date":1414418537000,"source_id":null,"source_name":null},"geometry":{"type":"Point","coordinates":[-86.0758738,37.223104]}}
,
{"type":"Feature","properties":{"OBJECTID":2696,"unit_code":"MACA","name":"BRANFORD-MANSFIELD CEMETERY","feature_category":"Cemetery","comments":"BRANFORD-MANSFIELD","GlobalID":"{378964D1-0C22-4BFC-BEA9-F2E73EF5E200}","created_user":"DWARREN","created_date":1414418537000,"last_edited_user":"DWARREN","last_edited_date":1414418537000,"source_id":null,"source_name":null},"geometry":{"type":"Point","coordinates":[-86.0564495,37.1969003]}}
,
{"type":"Feature","properties":{"OBJECTID":2697,"unit_code":"MACA","name":"MILES-DAVIS CEMETERY","feature_category":"Cemetery","comments":"MILES-DAVIS","GlobalID":"{D92C06E2-AA7A-4C49-8520-6C534AC843D7}","created_user":"DWARREN","created_date":1414418537000,"last_edited_user":"DWARREN","last_edited_date":1414418537000,"source_id":null,"source_name":null},"geometry":{"type":"Point","coordinates":[-86.182921,37.2001861]}}
,
{"type":"Feature","properties":{"OBJECTID":2698,"unit_code":"MACA","name":"JOHNSON CEMETERY","feature_category":"Cemetery","comments":"JOHNSON","GlobalID":"{9D04E1AB-0192-4C2A-8D2B-A0009974D106}","created_user":"DWARREN","created_date":1414418537000,"last_edited_user":"DWARREN","last_edited_date":1414418537000,"source_id":null,"source_name":null},"geometry":{"type":"Point","coordinates":[-86.1530348,37.1917611]}}
,
{"type":"Feature","properties":{"OBJECTID":2699,"unit_code":"MACA","name":"LEE CAVE CEMETERY","feature_category":"Cemetery","comments":"LEE CAVE","GlobalID":"{01C44AC2-A8D3-4AC4-8BC9-F977EC1122D1}","created_user":"DWARREN","created_date":1414418537000,"last_edited_user":"DWARREN","last_edited_date":1414418537000,"source_id":null,"source_name":null},"geometry":{"type":"Point","coordinates":[-86.1418885,37.1713566]}}
,
{"type":"Feature","properties":{"OBJECTID":2700,"unit_code":"MACA","name":"MORRISON CEMETERY","feature_category":"Cemetery","comments":"MORRISON","GlobalID":"{BB9D8768-DAD3-49F1-B231-2061EA7D0AE5}","created_user":"DWARREN","created_date":1414418537000,"last_edited_user":"DWARREN","last_edited_date":1414418537000,"source_id":null,"source_name":null},"geometry":{"type":"Point","coordinates":[-86.1881886,37.179266]}}
,
{"type":"Feature","properties":{"OBJECTID":2701,"unit_code":"MACA","name":"PIONEER CEMETERY","feature_category":"Cemetery","comments":"PIONEER","GlobalID":"{9D0EB6A9-7F1A-42E6-8C4B-FDD53D7E63E3}","created_user":"DWARREN","created_date":1414418537000,"last_edited_user":"DWARREN","last_edited_date":1414418537000,"source_id":null,"source_name":null},"geometry":{"type":"Point","coordinates":[-86.1808497,37.1699179]}}
,
{"type":"Feature","properties":{"OBJECTID":2702,"unit_code":"MACA","name":"DENHAM CEMETERY","feature_category":"Cemetery","comments":"DENHAM","GlobalID":"{0B0A8D30-CC3C-4138-9888-EE4CABCB82D7}","created_user":"DWARREN","created_date":1414418537000,"last_edited_user":"DWARREN","last_edited_date":1414418537000,"source_id":null,"source_name":null},"geometry":{"type":"Point","coordinates":[-86.1344489,37.1296348]}}
,
{"type":"Feature","properties":{"OBJECTID":2703,"unit_code":"MACA","name":"GARRETT DAVIS CEMETERY","feature_category":"Cemetery","comments":"GARRETT DAVIS","GlobalID":"{3BF674BD-7536-4AEE-B50A-7B5A3D1DDB88}","created_user":"DWARREN","created_date":1414418537000,"last_edited_user":"DWARREN","last_edited_date":1414418537000,"source_id":null,"source_name":null},"geometry":{"type":"Point","coordinates":[-86.1358836,37.1871913]}}
,
{"type":"Feature","properties":{"OBJECTID":2704,"unit_code":"MACA","name":"EATON GRAVE","feature_category":"Cemetery","comments":"EATON GRAVE","GlobalID":"{E4E6D1E8-8CD6-49E4-B29F-07343D5CF039}","created_user":"DWARREN","created_date":1414418537000,"last_edited_user":"DWARREN","last_edited_date":1414418537000,"source_id":null,"source_name":null},"geometry":{"type":"Point","coordinates":[-86.0920444,37.1903636]}}
,
{"type":"Feature","properties":{"OBJECTID":2705,"unit_code":"MACA","name":"SLAUGHTER-JONES CEMETERY","feature_category":"Cemetery","comments":"SLAUGHTER-JONES","GlobalID":"{7B201205-CB3C-4434-AD14-232D94AFB774}","created_user":"DWARREN","created_date":1414418537000,"last_edited_user":"DWARREN","last_edited_date":1414418537000,"source_id":null,"source_name":null},"geometry":{"type":"Point","coordinates":[-86.0891495,37.1591905]}}
,
{"type":"Feature","properties":{"OBJECTID":2706,"unit_code":"MACA","name":"BELLAMY-WHITLOW CEMETERY","feature_category":"Cemetery","comments":"BELLAMY-WHITLOW","GlobalID":"{26F633E5-434D-4456-878E-27B858FDE50C}","created_user":"DWARREN","created_date":1414418537000,"last_edited_user":"DWARREN","last_edited_date":1414418537000,"source_id":null,"source_name":null},"geometry":{"type":"Point","coordinates":[-86.0587992,37.1063902]}}
,
{"type":"Feature","properties":{"OBJECTID":2707,"unit_code":"MACA","name":"MADISON CEMETERY","feature_category":"Cemetery","comments":"MADISON","GlobalID":"{94110857-248A-43B0-B7C8-A867B8D667AA}","created_user":"DWARREN","created_date":1414418537000,"last_edited_user":"DWARREN","last_edited_date":1414418537000,"source_id":null,"source_name":null},"geometry":{"type":"Point","coordinates":[-86.2602066,37.2143229]}}
,
{"type":"Feature","properties":{"OBJECTID":2708,"unit_code":"MACA","name":"BECKER #2","feature_category":"Cemetery","comments":"BECKER #2","GlobalID":"{E236AA24-CC6C-49D9-B346-741E0029E0E4}","created_user":"DWARREN","created_date":1414418537000,"last_edited_user":"DWARREN","last_edited_date":1414418537000,"source_id":null,"source_name":null},"geometry":{"type":"Point","coordinates":[-86.1394388,37.149568]}}
,
{"type":"Feature","properties":{"OBJECTID":2709,"unit_code":"MACA","name":"VINCENT CEMETERY","feature_category":"Cemetery","comments":"VINCENT","GlobalID":"{DAFC71D4-D7A1-4EF1-B2D2-D45EBCFEF2B1}","created_user":"DWARREN","created_date":1414418537000,"last_edited_user":"DWARREN","last_edited_date":1414418537000,"source_id":null,"source_name":null},"geometry":{"type":"Point","coordinates":[-86.2462596,37.2406984]}}
,
{"type":"Feature","properties":{"OBJECTID":2710,"unit_code":"MACA","name":"GARVIN CEMETERY","feature_category":"Cemetery","comments":"GARVIN","GlobalID":"{883DF684-0D62-4A5A-8D53-017BAA73540E}","created_user":"DWARREN","created_date":1414418537000,"last_edited_user":"DWARREN","last_edited_date":1414418537000,"source_id":null,"source_name":null},"geometry":{"type":"Point","coordinates":[-86.0802584,37.1800189]}}
,
{"type":"Feature","properties":{"OBJECTID":2711,"unit_code":"MACA","name":"Piracy Grave","feature_category":"Cemetery","comments":"PIRACY GRAVE","GlobalID":"{3E27AF1B-2336-4C56-8807-CD812C451EF7}","created_user":"DWARREN","created_date":1414418537000,"last_edited_user":"DWARREN","last_edited_date":1414418537000,"source_id":null,"source_name":null},"geometry":{"type":"Point","coordinates":[-86.1827474,37.246959]}}
,
{"type":"Feature","properties":{"OBJECTID":2712,"unit_code":"MACA","name":"HANSON CEMETERY","feature_category":"Cemetery","comments":"HANSON","GlobalID":"{366591B6-63CD-4D39-9AE0-8BAE1BF67460}","created_user":"DWARREN","created_date":1414418537000,"last_edited_user":"DWARREN","last_edited_date":1414418537000,"source_id":null,"source_name":null},"geometry":{"type":"Point","coordinates":[-86.0803982,37.1356387]}}
,
{"type":"Feature","properties":{"OBJECTID":3447,"unit_code":"MACA","name":"Job Corps Sewer Plant Bldg 5","feature_category":"Place of Interest","comments":null,"GlobalID":"{7CF8CDEB-5F56-46B6-B250-66362DA0AF9B}","created_user":"DWARREN","created_date":1414508309000,"last_edited_user":"DWARREN","last_edited_date":1414508309000,"source_id":null,"source_name":"DSC Park Atlas"},"geometry":{"type":"Point","coordinates":[-86.2416872,37.2478374]}}
,
{"type":"Feature","properties":{"OBJECTID":3448,"unit_code":"MACA","name":"Job Corps Sewer Plant Bldg 4","feature_category":"Place of Interest","comments":null,"GlobalID":"{A62E9365-04CE-4531-BAA9-D6D8BFAF1D06}","created_user":"DWARREN","created_date":1414508309000,"last_edited_user":"DWARREN","last_edited_date":1414508309000,"source_id":null,"source_name":"DSC Park Atlas"},"geometry":{"type":"Point","coordinates":[-86.2416875,37.2478084]}}
,
{"type":"Feature","properties":{"OBJECTID":3449,"unit_code":"MACA","name":"Job Corps Sewer Plant Bldg 3","feature_category":"Place of Interest","comments":null,"GlobalID":"{864866C5-881F-480F-B558-4C3711D7EFF4}","created_user":"DWARREN","created_date":1414508309000,"last_edited_user":"DWARREN","last_edited_date":1414508309000,"source_id":null,"source_name":"DSC Park Atlas"},"geometry":{"type":"Point","coordinates":[-86.241497,37.2477545]}}
,
{"type":"Feature","properties":{"OBJECTID":3450,"unit_code":"MACA","name":"Job Corps Dugout 1","feature_category":"Place of Interest","comments":null,"GlobalID":"{FBDCE9BE-43C0-4D39-AA68-079A5CAE1409}","created_user":"DWARREN","created_date":1414508309000,"last_edited_user":"DWARREN","last_edited_date":1414508309000,"source_id":null,"source_name":"DSC Park Atlas"},"geometry":{"type":"Point","coordinates":[-86.2315806,37.2484538]}}
,
{"type":"Feature","properties":{"OBJECTID":3451,"unit_code":"MACA","name":"Bldg 410, Air Quality Station #1","feature_category":"Place of Interest","comments":null,"GlobalID":"{9AD202AE-2544-4D27-9BB5-884E24551CAF}","created_user":"DWARREN","created_date":1414508309000,"last_edited_user":"DWARREN","last_edited_date":1414508309000,"source_id":null,"source_name":"DSC Park Atlas"},"geometry":{"type":"Point","coordinates":[-86.1478951,37.1318134]}}
,
{"type":"Feature","properties":{"OBJECTID":3452,"unit_code":"MACA","name":"Bldg 439, Air Quality Station #2","feature_category":"Place of Interest","comments":null,"GlobalID":"{877C4B2E-5408-45D7-8DA7-B27B985C85EB}","created_user":"DWARREN","created_date":1414508309000,"last_edited_user":"DWARREN","last_edited_date":1414508309000,"source_id":null,"source_name":"DSC Park Atlas"},"geometry":{"type":"Point","coordinates":[-86.147886,37.1317419]}}
,
{"type":"Feature","properties":{"OBJECTID":3453,"unit_code":"MACA","name":"Job Corps Food Service Storage/Recycle Bldg #2","feature_category":"Place of Interest","comments":null,"GlobalID":"{5C7ABFC9-A01D-4743-A2EC-E17165A002B5}","created_user":"DWARREN","created_date":1414508309000,"last_edited_user":"DWARREN","last_edited_date":1414508309000,"source_id":null,"source_name":"DSC Park Atlas"},"geometry":{"type":"Point","coordinates":[-86.2336405,37.2475927]}}
,
{"type":"Feature","properties":{"OBJECTID":3454,"unit_code":"MACA","name":"Job Corps Masonry Pavilion Bldg #26","feature_category":"Place of Interest","comments":null,"GlobalID":"{9C97DE6C-581E-4AB2-AB91-91753ECB1CC7}","created_user":"DWARREN","created_date":1414508309000,"last_edited_user":"DWARREN","last_edited_date":1414508309000,"source_id":null,"source_name":"DSC Park Atlas"},"geometry":{"type":"Point","coordinates":[-86.2331201,37.2465758]}}
,
{"type":"Feature","properties":{"OBJECTID":3455,"unit_code":"MACA","name":"Job Corps Heavy Equipment Storage Bldg #27","feature_category":"Place of Interest","comments":null,"GlobalID":"{A0A79961-4BE6-4454-AD17-903AD01F5029}","created_user":"DWARREN","created_date":1414508309000,"last_edited_user":"DWARREN","last_edited_date":1414508309000,"source_id":null,"source_name":"DSC Park Atlas"},"geometry":{"type":"Point","coordinates":[-86.2336212,37.2455572]}}
,
{"type":"Feature","properties":{"OBJECTID":3456,"unit_code":"MACA","name":"Job Corps Recreation Pavilion Bldg#25","feature_category":"Place of Interest","comments":null,"GlobalID":"{EEE09C5B-DBD4-418C-B8FA-CB3D1E6BBBC7}","created_user":"DWARREN","created_date":1414508309000,"last_edited_user":"DWARREN","last_edited_date":1414508309000,"source_id":null,"source_name":"DSC Park Atlas"},"geometry":{"type":"Point","coordinates":[-86.235392,37.2466901]}}
,
{"type":"Feature","properties":{"OBJECTID":3457,"unit_code":"MACA","name":" ","feature_category":"Place of Interest","comments":null,"GlobalID":"{F688FE6F-E86E-4A85-8A51-B0051AAB8E19}","created_user":"DWARREN","created_date":1414508309000,"last_edited_user":"DWARREN","last_edited_date":1414508309000,"source_id":null,"source_name":"DSC Park Atlas"},"geometry":{"type":"Point","coordinates":[-86.1006726,37.1870276]}}
,
{"type":"Feature","properties":{"OBJECTID":3458,"unit_code":"MACA","name":"Bldg 302, Bus Shelter B","feature_category":"Place of Interest","comments":null,"GlobalID":"{9F9F6EE0-D31F-4EB5-9316-248810F7990E}","created_user":"DWARREN","created_date":1414508309000,"last_edited_user":"DWARREN","last_edited_date":1414508309000,"source_id":null,"source_name":"DSC Park Atlas"},"geometry":{"type":"Point","coordinates":[-86.1002712,37.186373]}}
,
{"type":"Feature","properties":{"OBJECTID":3459,"unit_code":"MACA","name":"Raptor Aviary","feature_category":"Place of Interest","comments":null,"GlobalID":"{7F41848A-0BF0-46B3-A960-2CBAA16B1D00}","created_user":"DWARREN","created_date":1414508309000,"last_edited_user":"DWARREN","last_edited_date":1414508309000,"source_id":null,"source_name":"DSC Park Atlas"},"geometry":{"type":"Point","coordinates":[-86.0881121,37.1843261]}}
,
{"type":"Feature","properties":{"OBJECTID":3460,"unit_code":"MACA","name":"Visitor Lockers","feature_category":"Place of Interest","comments":null,"GlobalID":"{66BE7262-5BDA-453D-A0F6-FECE7112E817}","created_user":"DWARREN","created_date":1414508309000,"last_edited_user":"DWARREN","last_edited_date":1414508309000,"source_id":null,"source_name":"DSC Park Atlas"},"geometry":{"type":"Point","coordinates":[-86.100513,37.1865924]}}
,
{"type":"Feature","properties":{"OBJECTID":3461,"unit_code":"MACA","name":"Bldg ???, Bat Roost 2","feature_category":"Place of Interest","comments":null,"GlobalID":"{2360077B-DF7F-4023-8D42-BABD29940547}","created_user":"DWARREN","created_date":1414508309000,"last_edited_user":"DWARREN","last_edited_date":1414508309000,"source_id":null,"source_name":"DSC Park Atlas"},"geometry":{"type":"Point","coordinates":[-86.0561865,37.1317676]}}
,
{"type":"Feature","properties":{"OBJECTID":3462,"unit_code":"MACA","name":"Bldg ???, Bat Roost 1","feature_category":"Place of Interest","comments":null,"GlobalID":"{9094B31B-F668-41AF-98C3-E892975DE622}","created_user":"DWARREN","created_date":1414508309000,"last_edited_user":"DWARREN","last_edited_date":1414508309000,"source_id":null,"source_name":"DSC Park Atlas"},"geometry":{"type":"Point","coordinates":[-86.0561435,37.1318314]}}
,
{"type":"Feature","properties":{"OBJECTID":3463,"unit_code":"MACA","name":"Bldg 302, Bus Shelter A","feature_category":"Place of Interest","comments":null,"GlobalID":"{5A162102-85F3-46C3-99A8-486196393D60}","created_user":"DWARREN","created_date":1414508309000,"last_edited_user":"DWARREN","last_edited_date":1414508309000,"source_id":null,"source_name":"DSC Park Atlas"},"geometry":{"type":"Point","coordinates":[-86.1008063,37.1867256]}}
,
{"type":"Feature","properties":{"OBJECTID":3464,"unit_code":"MACA","name":"Bldg 085, Wood Land Cottage","feature_category":"Lodge/Motel/Hotel","comments":"Bldg. Lodge/Motel (GSF)","GlobalID":"{F5D749C7-0FC6-40DE-8C60-315FE70DACA5}","created_user":"DWARREN","created_date":1414508309000,"last_edited_user":"DWARREN","last_edited_date":1414508309000,"source_id":"{3E470D1D-77CE-4DD2-AC2E-ACC06B42C377}","source_name":"NPS Buildings Database"},"geometry":{"type":"Point","coordinates":[-86.1006221,37.1894505]}}
,
{"type":"Feature","properties":{"OBJECTID":3465,"unit_code":"MACA","name":"Bldg 006, Sunset Point Hose House","feature_category":"Pump House","comments":"Bldg. Pump / House (GSF)","GlobalID":"{C39BAD11-7127-47E8-BD58-A0BCCE0BC533}","created_user":"DWARREN","created_date":1414508309000,"last_edited_user":"DWARREN","last_edited_date":1414508309000,"source_id":"{9D84AFCF-B4D7-4637-856C-82CDCA1F7334}","source_name":"NPS Buildings Database"},"geometry":{"type":"Point","coordinates":[-86.1030517,37.1851721]}}
,
{"type":"Feature","properties":{"OBJECTID":3466,"unit_code":"MACA","name":"Bldg 071, Wood Land 2 - Room Cottage","feature_category":"Lodge/Motel/Hotel","comments":"Bldg. Lodge/Motel (GSF)","GlobalID":"{4CD7FC7F-0902-41D0-A7B4-C3CFEA9DE900}","created_user":"DWARREN","created_date":1414508309000,"last_edited_user":"DWARREN","last_edited_date":1414508309000,"source_id":"{99B96C75-A898-4D4B-913F-C9C6C51C23AB}","source_name":"NPS Buildings Database"},"geometry":{"type":"Point","coordinates":[-86.1005592,37.1892424]}}
,
{"type":"Feature","properties":{"OBJECTID":3467,"unit_code":"MACA","name":"Bldg 063, Facility Management Office","feature_category":"Office","comments":"Bldg. Office (GSF)","GlobalID":"{D1439EA8-FA82-492E-A9DE-D97E360C8A16}","created_user":"DWARREN","created_date":1414508309000,"last_edited_user":"DWARREN","last_edited_date":1414508309000,"source_id":"{F2D28834-B73C-4172-9763-99639352DDF7}","source_name":"NPS Buildings Database"},"geometry":{"type":"Point","coordinates":[-86.0855566,37.179998]}}
,
{"type":"Feature","properties":{"OBJECTID":3468,"unit_code":"MACA","name":"Bldg 084, Wood Land Cottage","feature_category":"Lodge/Motel/Hotel","comments":"Bldg. Lodge/Motel (GSF)","GlobalID":"{4042E349-FDB3-4271-B6AF-38E62A28A6D5}","created_user":"DWARREN","created_date":1414508309000,"last_edited_user":"DWARREN","last_edited_date":1414508309000,"source_id":"{6D2881AD-34DA-4DAE-BD8B-D2788C45F130}","source_name":"NPS Buildings Database"},"geometry":{"type":"Point","coordinates":[-86.1007402,37.1893017]}}
,
{"type":"Feature","properties":{"OBJECTID":3469,"unit_code":"MACA","name":"Bldg 416, Chapel Wondering Woods","feature_category":"Auditorium","comments":"Bldg. Auditorium (GSF)","GlobalID":"{4A3692C2-6EBA-4958-B392-C2AB29E9092B}","created_user":"DWARREN","created_date":1414508309000,"last_edited_user":"DWARREN","last_edited_date":1414508309000,"source_id":"{C38BAA48-59E9-418C-A67B-FEE2F7D3C6BF}","source_name":"NPS Buildings Database"},"geometry":{"type":"Point","coordinates":[-86.0595958,37.1333824]}}
,
{"type":"Feature","properties":{"OBJECTID":3470,"unit_code":"MACA","name":"Bldg 431,  Concession Cat Kennel","feature_category":"Stable","comments":"Bldg. Barn Stable (GSF)","GlobalID":"{4FB2139A-616C-457D-8513-CFC7764448EC}","created_user":"DWARREN","created_date":1414508309000,"last_edited_user":"DWARREN","last_edited_date":1414508309000,"source_id":"{7DFED67A-1825-4AFC-8533-73397DF279B4}","source_name":"NPS Buildings Database"},"geometry":{"type":"Point","coordinates":[-86.1023428,37.1846354]}}
,
{"type":"Feature","properties":{"OBJECTID":3471,"unit_code":"MACA","name":"Bldg 072, Wood Land 1 - Room Cottage","feature_category":"Lodge/Motel/Hotel","comments":"Bldg. Lodge/Motel (GSF)","GlobalID":"{C496E081-8F92-41E2-96E1-F3559E3F26E7}","created_user":"DWARREN","created_date":1414508309000,"last_edited_user":"DWARREN","last_edited_date":1414508309000,"source_id":"{67D9FA36-0400-45A0-9582-49BFCC5771EB}","source_name":"NPS Buildings Database"},"geometry":{"type":"Point","coordinates":[-86.1007533,37.1890792]}}
,
{"type":"Feature","properties":{"OBJECTID":3472,"unit_code":"MACA","name":"Bldg 080, Wood Land 4 - Room Cottage","feature_category":"Lodge/Motel/Hotel","comments":"Bldg. Lodge/Motel (GSF)","GlobalID":"{82E98134-EE0A-4478-A5E8-BBA6BBCCF053}","created_user":"DWARREN","created_date":1414508309000,"last_edited_user":"DWARREN","last_edited_date":1414508309000,"source_id":"{E2F26762-7162-43C0-BCEA-DB61AE5D1FCC}","source_name":"NPS Buildings Database"},"geometry":{"type":"Point","coordinates":[-86.1009621,37.1887636]}}
,
{"type":"Feature","properties":{"OBJECTID":3473,"unit_code":"MACA","name":"Bldg 318, Rangers Storage Shed (Veh Wash House)","feature_category":null,"comments":"Bldg. Warehouse Fire Ca (GSF)","GlobalID":"{74BF6948-32A6-4B17-A60D-67AAF916D5D2}","created_user":"DWARREN","created_date":1414508309000,"last_edited_user":"DWARREN","last_edited_date":1414508309000,"source_id":"{261E2D71-7EC1-40A8-9F24-26CAE62068CC}","source_name":"NPS Buildings Database"},"geometry":{"type":"Point","coordinates":[-86.0861913,37.1802649]}}
,
{"type":"Feature","properties":{"OBJECTID":3474,"unit_code":"MACA","name":"Bldg 086, Wood Land Cottage","feature_category":"Lodge/Motel/Hotel","comments":"Bldg. Lodge/Motel (GSF)","GlobalID":"{A8B960D1-ECBF-46AC-A3F9-AC47237BD35D}","created_user":"DWARREN","created_date":1414508309000,"last_edited_user":"DWARREN","last_edited_date":1414508309000,"source_id":"{B84678A4-7A70-4F06-A6B3-119A9B9C5887}","source_name":"NPS Buildings Database"},"geometry":{"type":"Point","coordinates":[-86.1009041,37.1892564]}}
,
{"type":"Feature","properties":{"OBJECTID":3475,"unit_code":"MACA","name":"Bldg 073, Wood Land 1 - Room Cottage","feature_category":"Lodge/Motel/Hotel","comments":"Bldg. Lodge/Motel (GSF)","GlobalID":"{F285FE03-FC6D-4503-959F-527FB60E0BF5}","created_user":"DWARREN","created_date":1414508309000,"last_edited_user":"DWARREN","last_edited_date":1414508309000,"source_id":"{67C9BDC5-4BBE-4C85-9CDC-21799FE0CAC0}","source_name":"NPS Buildings Database"},"geometry":{"type":"Point","coordinates":[-86.100715,37.1887776]}}
,
{"type":"Feature","properties":{"OBJECTID":3476,"unit_code":"MACA","name":"Bldg 015  Deluxe Guest Cottage (Hotel)","feature_category":"Lodge/Motel/Hotel","comments":"Bldg. Lodge/Motel (GSF)","GlobalID":"{6619CC4D-626C-4507-A847-795CAE2D1647}","created_user":"DWARREN","created_date":1414508309000,"last_edited_user":"DWARREN","last_edited_date":1414508309000,"source_id":"{5D4E241F-E6A7-4578-9A02-8FD2632AA89F}","source_name":"NPS Buildings Database"},"geometry":{"type":"Point","coordinates":[-86.1006385,37.1840894]}}
,
{"type":"Feature","properties":{"OBJECTID":3477,"unit_code":"MACA","name":"Bldg 319, Lumber Storage","feature_category":"Maintenance Shed","comments":"Bldg. Shed/Outbuilding (GSF)","GlobalID":"{C28A7C96-14E0-4569-9E80-D4E891154086}","created_user":"DWARREN","created_date":1414508309000,"last_edited_user":"DWARREN","last_edited_date":1414508309000,"source_id":"{EF0F4993-8B95-48B2-9293-F121211EF7C2}","source_name":"NPS Buildings Database"},"geometry":{"type":"Point","coordinates":[-86.085409,37.1794238]}}
,
{"type":"Feature","properties":{"OBJECTID":3478,"unit_code":"MACA","name":"Bldg 442, Vault Restroom at Maple Springs Campground","feature_category":"Comfort Station","comments":"Bldg. Comfort Station (GSF)","GlobalID":"{1BCA99A4-7314-46A1-BA2B-0A43B37EBABC}","created_user":"DWARREN","created_date":1414508309000,"last_edited_user":"DWARREN","last_edited_date":1414508309000,"source_id":"{8775798B-1993-452C-90D7-63B14B85C32A}","source_name":"NPS Buildings Database"},"geometry":{"type":"Point","coordinates":[-86.1371277,37.2032074]}}
,
{"type":"Feature","properties":{"OBJECTID":3479,"unit_code":"MACA","name":"Bldg 019 Frozen Niagara Shelter","feature_category":"Maintenance Shed","comments":"Bldg. Shed/Outbuilding (GSF)","GlobalID":"{069B7802-54E6-488E-B68D-1FFFD770CD28}","created_user":"DWARREN","created_date":1414508309000,"last_edited_user":"DWARREN","last_edited_date":1414508309000,"source_id":"{C5D156DE-46AF-453F-8E46-2CC964830344}","source_name":"NPS Buildings Database"},"geometry":{"type":"Point","coordinates":[-86.0579545,37.149246]}}
,
{"type":"Feature","properties":{"OBJECTID":3480,"unit_code":"MACA","name":"Bldg 047 Great Onyx Pump Station","feature_category":"Pump House","comments":"Bldg. Pump / House (GSF)","GlobalID":"{5DFDEA07-22ED-4B9D-8E43-4C2A3581D697}","created_user":"DWARREN","created_date":1414508309000,"last_edited_user":"DWARREN","last_edited_date":1414508309000,"source_id":"{312804D7-9BB9-45DE-B663-1A71C76B22D2}","source_name":"NPS Buildings Database"},"geometry":{"type":"Point","coordinates":[-86.0723087,37.2173556]}}
,
{"type":"Feature","properties":{"OBJECTID":3481,"unit_code":"MACA","name":"Bldg 316, Picnic Shelter, Lower Picnic Area","feature_category":"Maintenance Shed","comments":"Bldg. Shed/Outbuilding (GSF)","GlobalID":"{4214EB1B-7D33-4A85-B748-E13C5C67E9F6}","created_user":"DWARREN","created_date":1414508309000,"last_edited_user":"DWARREN","last_edited_date":1414508309000,"source_id":"{C9310967-05C5-40A4-A5FB-6433533D5037}","source_name":"NPS Buildings Database"},"geometry":{"type":"Point","coordinates":[-86.1019586,37.1898333]}}
,
{"type":"Feature","properties":{"OBJECTID":3482,"unit_code":"MACA","name":"Bldg 313, Science Resource Office (old warehouse)","feature_category":"Office","comments":"Bldg. Office (GSF)","GlobalID":"{8ADA503F-913D-4C9D-A462-5658B1E52678}","created_user":"DWARREN","created_date":1414508309000,"last_edited_user":"DWARREN","last_edited_date":1414508309000,"source_id":"{AD21EC17-96C6-48FD-BD2C-A9290B0B85CC}","source_name":"NPS Buildings Database"},"geometry":{"type":"Point","coordinates":[-86.0854455,37.1797693]}}
,
{"type":"Feature","properties":{"OBJECTID":3483,"unit_code":"MACA","name":"Bldg 315, Houchins Ferry Operator House","feature_category":"Cultural Center","comments":"Bldg. Cultural Ctr (GSF)","GlobalID":"{25A55002-348F-42CD-ACC5-0FCFFCB53E73}","created_user":"DWARREN","created_date":1414508309000,"last_edited_user":"DWARREN","last_edited_date":1414508309000,"source_id":"{60BA8C78-28FD-4FF3-B284-71B15127F8B7}","source_name":"NPS Buildings Database"},"geometry":{"type":"Point","coordinates":[-86.2372332,37.2019024]}}
,
{"type":"Feature","properties":{"OBJECTID":3484,"unit_code":"MACA","name":"Bldg 095, Procurement Building and Warehouse","feature_category":null,"comments":"Bldg. Warehouse (GSF)","GlobalID":"{C046F113-E391-427F-B287-79524550B41F}","created_user":"DWARREN","created_date":1414508309000,"last_edited_user":"DWARREN","last_edited_date":1414508309000,"source_id":"{98ED0E38-E88D-4835-BC1C-131A84CD189B}","source_name":"NPS Buildings Database"},"geometry":{"type":"Point","coordinates":[-86.0856424,37.1793974]}}
,
{"type":"Feature","properties":{"OBJECTID":3485,"unit_code":"MACA","name":"Bldg 300, Concessions Warehouse in Utility Area","feature_category":null,"comments":"Bldg. Warehouse (GSF)","GlobalID":"{38022BE3-607A-42F8-9CA4-107B5232D369}","created_user":"DWARREN","created_date":1414508309000,"last_edited_user":"DWARREN","last_edited_date":1414508309000,"source_id":"{0DFC1683-DE3F-496F-A8E5-098924A2C8DC}","source_name":"NPS Buildings Database"},"geometry":{"type":"Point","coordinates":[-86.084418,37.1808357]}}
,
{"type":"Feature","properties":{"OBJECTID":3486,"unit_code":"MACA","name":"Bldg 079, Wood Land 2 - Room Cottage","feature_category":"Lodge/Motel/Hotel","comments":"Bldg. Lodge/Motel (GSF)","GlobalID":"{F43DE496-5B3B-4F69-B474-893E322C3E39}","created_user":"DWARREN","created_date":1414508309000,"last_edited_user":"DWARREN","last_edited_date":1414508309000,"source_id":"{A409E476-82C0-4BCF-A643-530D443047CB}","source_name":"NPS Buildings Database"},"geometry":{"type":"Point","coordinates":[-86.1003934,37.1892075]}}
,
{"type":"Feature","properties":{"OBJECTID":3487,"unit_code":"MACA","name":"Bldg 052, Concession Workshop","feature_category":"Maintenance","comments":"Bldg. Service Shop/Maint (GSF)","GlobalID":"{42A2D6BC-F7FE-4F90-A137-D81279D8C682}","created_user":"DWARREN","created_date":1414508309000,"last_edited_user":"DWARREN","last_edited_date":1414508309000,"source_id":"{C7D58EBB-F985-4FE7-8046-B7C7431DE1CE}","source_name":"NPS Buildings Database"},"geometry":{"type":"Point","coordinates":[-86.0848763,37.1807496]}}
,
{"type":"Feature","properties":{"OBJECTID":3488,"unit_code":"MACA","name":"Bldg 067, Wood Land 3 - Room Cottage","feature_category":"Lodge/Motel/Hotel","comments":"Bldg. Lodge/Motel (GSF)","GlobalID":"{2A914EF6-FFC3-4A11-A0BF-6CF01A430390}","created_user":"DWARREN","created_date":1414508309000,"last_edited_user":"DWARREN","last_edited_date":1414508309000,"source_id":"{947677ED-C390-4D5E-8DDF-611BF35BAC04}","source_name":"NPS Buildings Database"},"geometry":{"type":"Point","coordinates":[-86.1002299,37.1885867]}}
,
{"type":"Feature","properties":{"OBJECTID":3489,"unit_code":"MACA","name":"Bldg 031, CCC Constructed  Housing Unit","feature_category":"Office","comments":"Bldg. Office (GSF)","GlobalID":"{11F8B21B-CA27-41E9-BBC4-4A505440C70E}","created_user":"DWARREN","created_date":1414508309000,"last_edited_user":"DWARREN","last_edited_date":1414508309000,"source_id":"{E38C7354-8E17-4AA3-A2CC-282B70413B5D}","source_name":"NPS Buildings Database"},"geometry":{"type":"Point","coordinates":[-86.0896325,37.183873]}}
,
{"type":"Feature","properties":{"OBJECTID":3490,"unit_code":"MACA","name":"Bldg 101, Train Shelter","feature_category":"Maintenance Shed","comments":"Bldg. Shed/Outbuilding (GSF)","GlobalID":"{0053604E-AE04-42DD-93AC-04EF71E187AA}","created_user":"DWARREN","created_date":1414508309000,"last_edited_user":"DWARREN","last_edited_date":1414508309000,"source_id":"{7BC29BE7-9DA1-4E09-8304-ED7B498C5CA9}","source_name":"NPS Buildings Database"},"geometry":{"type":"Point","coordinates":[-86.0988085,37.1844093]}}
,
{"type":"Feature","properties":{"OBJECTID":3491,"unit_code":"MACA","name":"Bldg 039,  External Programs Office","feature_category":"Office","comments":"Bldg. Office (GSF)","GlobalID":"{D763BD5C-0178-4707-96A2-4715D8DEE3AC}","created_user":"DWARREN","created_date":1414508309000,"last_edited_user":"DWARREN","last_edited_date":1414508309000,"source_id":"{FF123F98-F894-4FC7-8816-EE034053D2EA}","source_name":"NPS Buildings Database"},"geometry":{"type":"Point","coordinates":[-86.0882601,37.1837679]}}
,
{"type":"Feature","properties":{"OBJECTID":3492,"unit_code":"MACA","name":"Bldg 328, YCC Building","feature_category":"Maintenance Shed","comments":"Bldg. Shed/Outbuilding (GSF)","GlobalID":"{1113E4BD-B371-46BB-ACCF-83B8F118EC36}","created_user":"DWARREN","created_date":1414508309000,"last_edited_user":"DWARREN","last_edited_date":1414508309000,"source_id":"{6E5BA751-26A6-431F-9CD5-D0AF2186FD86}","source_name":"NPS Buildings Database"},"geometry":{"type":"Point","coordinates":[-86.0850124,37.1792751]}}
,
{"type":"Feature","properties":{"OBJECTID":3493,"unit_code":"MACA","name":"Bldg 403, Generator Building at Training Center","feature_category":"Communication System","comments":"Bldg. Communications Sys (GSF)","GlobalID":"{D9292B64-C7C3-404E-B165-8FEA04DF3739}","created_user":"DWARREN","created_date":1414508309000,"last_edited_user":"DWARREN","last_edited_date":1414508309000,"source_id":"{3A904404-0519-462F-AABE-F37155510A8F}","source_name":"NPS Buildings Database"},"geometry":{"type":"Point","coordinates":[-86.0868044,37.1807635]}}
,
{"type":"Feature","properties":{"OBJECTID":3494,"unit_code":"MACA","name":"Bldg 022, Maple Springs Kitchen/Classroom","feature_category":null,"comments":"Bldg. Training Center (GSF)","GlobalID":"{46E4FFF8-94AA-47F2-A8E8-7C040AD566DC}","created_user":"DWARREN","created_date":1414508309000,"last_edited_user":"DWARREN","last_edited_date":1414508309000,"source_id":"{F58CD6B5-116B-4912-BA0F-A36515F0EDA6}","source_name":"NPS Buildings Database"},"geometry":{"type":"Point","coordinates":[-86.1321317,37.2073291]}}
,
{"type":"Feature","properties":{"OBJECTID":3495,"unit_code":"MACA","name":"Q-00000097 Bldg 097, Seasonal Apartment #97","feature_category":"Housing Apartment","comments":"Bldg. Apartment (GSF)","GlobalID":"{60E5B837-91D5-4B06-AD74-681ADA630F83}","created_user":"DWARREN","created_date":1414508309000,"last_edited_user":"DWARREN","last_edited_date":1414508309000,"source_id":"{0FDEBEAA-B33C-4769-B524-6060121275B9}","source_name":"NPS Buildings Database"},"geometry":{"type":"Point","coordinates":[-86.0864953,37.1808698]}}
,
{"type":"Feature","properties":{"OBJECTID":3496,"unit_code":"MACA","name":"Bldg 074, Wood Land 1 - Room Cottage","feature_category":"Lodge/Motel/Hotel","comments":"Bldg. Lodge/Motel (GSF)","GlobalID":"{63A66606-1852-4E40-8889-B64A18D57F46}","created_user":"DWARREN","created_date":1414508309000,"last_edited_user":"DWARREN","last_edited_date":1414508309000,"source_id":"{EC819698-0885-4D5A-AA7F-643DE33F0F9F}","source_name":"NPS Buildings Database"},"geometry":{"type":"Point","coordinates":[-86.1005333,37.188771]}}
,
{"type":"Feature","properties":{"OBJECTID":3497,"unit_code":"MACA","name":"Bldg 428, Joppa Church","feature_category":"Auditorium","comments":"Bldg. Auditorium (GSF)","GlobalID":"{0B992C86-64CD-44C8-8780-2DE2AAF17E9E}","created_user":"DWARREN","created_date":1414508309000,"last_edited_user":"DWARREN","last_edited_date":1414508309000,"source_id":"{E7366FB0-E58E-4D1B-A387-50F02F2CA2E5}","source_name":"NPS Buildings Database"},"geometry":{"type":"Point","coordinates":[-86.1351265,37.1626092]}}
,
{"type":"Feature","properties":{"OBJECTID":3498,"unit_code":"MACA","name":"Bldg 321, Shelter for New Discovery Entrance","feature_category":"Maintenance Shed","comments":"Bldg. Shed/Outbuilding (GSF)","GlobalID":"{EF6BFD07-B43E-4ECC-81D0-02783AA09F9A}","created_user":"DWARREN","created_date":1414508309000,"last_edited_user":"DWARREN","last_edited_date":1414508309000,"source_id":"{5DD9519A-D081-4629-92D7-9A4CC4682DA0}","source_name":"NPS Buildings Database"},"geometry":{"type":"Point","coordinates":[-86.0954647,37.1728558]}}
,
{"type":"Feature","properties":{"OBJECTID":3499,"unit_code":"MACA","name":"Bldg 404, Garage in Residence Area","feature_category":"Garage","comments":"Bldg. Housing Garage (GSF)","GlobalID":"{DE7A8F82-DC0E-4718-A9C4-844E70D8277F}","created_user":"DWARREN","created_date":1414508309000,"last_edited_user":"DWARREN","last_edited_date":1414508309000,"source_id":"{99131AD6-F101-4FD1-A2BF-532A805FFC6C}","source_name":"NPS Buildings Database"},"geometry":{"type":"Point","coordinates":[-86.0873826,37.1843764]}}
,
{"type":"Feature","properties":{"OBJECTID":3500,"unit_code":"MACA","name":"Bldg 414, Lift Station - Point X","feature_category":"Pump House","comments":"Bldg. Pump / House (GSF)","GlobalID":"{4AB4E60E-DECA-479F-9C4B-3C35E17B09F9}","created_user":"DWARREN","created_date":1414508309000,"last_edited_user":"DWARREN","last_edited_date":1414508309000,"source_id":"{8F5FD292-40C0-4F54-B4EE-A19A1DF90DF0}","source_name":"NPS Buildings Database"},"geometry":{"type":"Point","coordinates":[-86.0925202,37.1820169]}}
,
{"type":"Feature","properties":{"OBJECTID":3501,"unit_code":"MACA","name":"Q-000000034 Bldg 034, Residence #34","feature_category":"Housing Single Family","comments":"Bldg. House Single Fam (GSF)","GlobalID":"{7AAAB4DA-7D04-49F6-98CD-AB080B91E00B}","created_user":"DWARREN","created_date":1414508309000,"last_edited_user":"DWARREN","last_edited_date":1414508309000,"source_id":"{4759B1C1-F50F-4071-A5A1-7F6FA743BAE2}","source_name":"NPS Buildings Database"},"geometry":{"type":"Point","coordinates":[-86.0899046,37.1842881]}}
,
{"type":"Feature","properties":{"OBJECTID":3502,"unit_code":"MACA","name":"Bldg 301, Concession Storage Building","feature_category":null,"comments":"Bldg. Warehouse (GSF)","GlobalID":"{80AABD58-0A22-474F-AA4A-F8213AE6D0DB}","created_user":"DWARREN","created_date":1414508309000,"last_edited_user":"DWARREN","last_edited_date":1414508309000,"source_id":"{270E40DD-7CFF-4C64-B6F0-DD3170B7F15E}","source_name":"NPS Buildings Database"},"geometry":{"type":"Point","coordinates":[-86.0846828,37.1808925]}}
,
{"type":"Feature","properties":{"OBJECTID":3503,"unit_code":"MACA","name":"Bldg 417, Bus Drivers Booth","feature_category":"Maintenance Shed","comments":"Bldg. Shed/Outbuilding (GSF)","GlobalID":"{6DC3674E-B735-4FB4-B74E-84F3F903E0DA}","created_user":"DWARREN","created_date":1414508309000,"last_edited_user":"DWARREN","last_edited_date":1414508309000,"source_id":"{AF256DAB-7E76-4875-8DDB-1AAABC867B0B}","source_name":"NPS Buildings Database"},"geometry":{"type":"Point","coordinates":[-86.1017721,37.1872291]}}
,
{"type":"Feature","properties":{"OBJECTID":3504,"unit_code":"MACA","name":"Bldg 038, Piedmont Network Office","feature_category":"Office","comments":"Bldg. Office (GSF)","GlobalID":"{FC9B0FA1-6EDF-4BAC-A605-A8CDEB385372}","created_user":"DWARREN","created_date":1414508309000,"last_edited_user":"DWARREN","last_edited_date":1414508309000,"source_id":"{E7241CB6-8BDD-477F-8B2C-D271C0CA40FF}","source_name":"NPS Buildings Database"},"geometry":{"type":"Point","coordinates":[-86.0863754,37.1840628]}}
,
{"type":"Feature","properties":{"OBJECTID":3505,"unit_code":"MACA","name":"Bldg 112, Visitor Center Pavillion","feature_category":"Contact Station","comments":"Bldg. Visitor Cont Stat (GSF)","GlobalID":"{19ED2378-966C-4E66-AE37-BBD53F6CE128}","created_user":"DWARREN","created_date":1414508309000,"last_edited_user":"DWARREN","last_edited_date":1414508309000,"source_id":"{4E8510C2-8E36-452D-A88B-EED28961BE92}","source_name":"NPS Buildings Database"},"geometry":{"type":"Point","coordinates":[-86.1011126,37.1872436]}}
,
{"type":"Feature","properties":{"OBJECTID":3506,"unit_code":"MACA","name":"Bldg 413, Lift Station - Permament Housing Area","feature_category":"Pump House","comments":"Bldg. Pump / House (GSF)","GlobalID":"{B5A30797-AADD-46F7-9995-38A445099E5D}","created_user":"DWARREN","created_date":1414508309000,"last_edited_user":"DWARREN","last_edited_date":1414508309000,"source_id":"{1B3AF7F7-4FEB-48F9-82F7-D9078398A805}","source_name":"NPS Buildings Database"},"geometry":{"type":"Point","coordinates":[-86.0898486,37.1831237]}}
,
{"type":"Feature","properties":{"OBJECTID":3507,"unit_code":"MACA","name":"Bldg 061, Storage Shed North End of Utility Area","feature_category":"Maintenance Shed","comments":"Bldg. Shed/Outbuilding (GSF)","GlobalID":"{28437785-AC7D-4E59-8E75-39B4DA7A7B84}","created_user":"DWARREN","created_date":1414508309000,"last_edited_user":"DWARREN","last_edited_date":1414508309000,"source_id":"{79372375-9CFD-42EF-90A6-3934286E4BD9}","source_name":"NPS Buildings Database"},"geometry":{"type":"Point","coordinates":[-86.086129,37.1799047]}}
,
{"type":"Feature","properties":{"OBJECTID":3508,"unit_code":"MACA","name":"Bldg 312, Oil and Gas Storage","feature_category":null,"comments":"Bldg. Warehouse Chem (GSF)","GlobalID":"{EA279EA9-14E2-4B4F-93F5-5509A002E7CF}","created_user":"DWARREN","created_date":1414508309000,"last_edited_user":"DWARREN","last_edited_date":1414508309000,"source_id":"{DEFA412E-D3E9-4BC6-860C-1FE959188026}","source_name":"NPS Buildings Database"},"geometry":{"type":"Point","coordinates":[-86.0859934,37.1800007]}}
,
{"type":"Feature","properties":{"OBJECTID":3509,"unit_code":"MACA","name":"Bldg 207, Restaurant Complex, Hotel, & Gift Shop","feature_category":"Store","comments":"Bldg. Retail Store (GSF)","GlobalID":"{D2FCC438-DD9C-45F1-970B-F1993B730FF1}","created_user":"DWARREN","created_date":1414508309000,"last_edited_user":"DWARREN","last_edited_date":1414508309000,"source_id":"{68FFBD99-B748-4CB8-AACC-303C4C4A4385}","source_name":"NPS Buildings Database"},"geometry":{"type":"Point","coordinates":[-86.101178,37.1859796]}}
,
{"type":"Feature","properties":{"OBJECTID":3510,"unit_code":"MACA","name":"Bldg 411, Maple Springs Bat House","feature_category":"Cultural Center","comments":"Bldg. Cultural Ctr (GSF)","GlobalID":"{809D6B66-4837-413C-84F2-73AB72C30B51}","created_user":"DWARREN","created_date":1414508309000,"last_edited_user":"DWARREN","last_edited_date":1414508309000,"source_id":"{D19E8299-853C-4C48-88EF-9E66EDE2B36D}","source_name":"NPS Buildings Database"},"geometry":{"type":"Point","coordinates":[-86.1324733,37.2077795]}}
,
{"type":"Feature","properties":{"OBJECTID":3511,"unit_code":"MACA","name":"Bldg 448,  Pressure Tank Building","feature_category":null,"comments":"Bldg. Water Treatment","GlobalID":"{D47D5920-EFC7-4D38-8B94-8A22C2AAA609}","created_user":"DWARREN","created_date":1414508309000,"last_edited_user":"DWARREN","last_edited_date":1414508309000,"source_id":"{9E7E9376-02D0-4F8B-B983-12FA8A731D67}","source_name":"NPS Buildings Database"},"geometry":{"type":"Point","coordinates":[-86.0879653,37.1820262]}}
,
{"type":"Feature","properties":{"OBJECTID":3512,"unit_code":"MACA","name":"Bldg 001, Earth House","feature_category":"Nature Center","comments":"Bldg.Environment Ed. Ctr (GSF)","GlobalID":"{8BB3CBA8-859D-4757-B158-146B6030D264}","created_user":"DWARREN","created_date":1414508309000,"last_edited_user":"DWARREN","last_edited_date":1414508309000,"source_id":"{F6A1617C-C9A4-4A31-B9E9-3E377479C220}","source_name":"NPS Buildings Database"},"geometry":{"type":"Point","coordinates":[-86.1021809,37.1907212]}}
,
{"type":"Feature","properties":{"OBJECTID":3513,"unit_code":"MACA","name":"Bldg 430, Visitor Center Information Shelter","feature_category":"Contact Station","comments":"Bldg. Visitor Cont Stat (GSF)","GlobalID":"{78517C1F-300D-4700-9C13-012192550F7F}","created_user":"DWARREN","created_date":1414508309000,"last_edited_user":"DWARREN","last_edited_date":1414508309000,"source_id":"{28ADDA72-E640-47AE-BA66-E86A56392EE4}","source_name":"NPS Buildings Database"},"geometry":{"type":"Point","coordinates":[-86.1011096,37.1870962]}}
,
{"type":"Feature","properties":{"OBJECTID":3514,"unit_code":"MACA","name":"Bldg 445, Repeater House 2","feature_category":"Communication System","comments":"Bldg. Communications Sys (GSF)","GlobalID":"{60DE0A41-1F55-4179-BD58-9CCB08876A38}","created_user":"DWARREN","created_date":1414508309000,"last_edited_user":"DWARREN","last_edited_date":1414508309000,"source_id":"{A4F46713-55B0-429F-B067-1C93CCAFB551}","source_name":"NPS Buildings Database"},"geometry":{"type":"Point","coordinates":[-86.0867611,37.1801274]}}
,
{"type":"Feature","properties":{"OBJECTID":3515,"unit_code":"MACA","name":"Bldg 305, Comfort Station, Picnic Area","feature_category":"Comfort Station","comments":"Bldg. Comfort Station (GSF)","GlobalID":"{96F5AFD5-48EE-4C49-A320-13518D1E3690}","created_user":"DWARREN","created_date":1414508309000,"last_edited_user":"DWARREN","last_edited_date":1414508309000,"source_id":"{30D15A30-79E0-4755-B32C-E8878077D19C}","source_name":"NPS Buildings Database"},"geometry":{"type":"Point","coordinates":[-86.1020859,37.1901166]}}
,
{"type":"Feature","properties":{"OBJECTID":3516,"unit_code":"MACA","name":"Bldg 030, CCC Constructed Housing Unit","feature_category":"Office","comments":"Bldg. Office (GSF)","GlobalID":"{30DB2067-D618-4BA1-B126-E26C99FE8313}","created_user":"DWARREN","created_date":1414508309000,"last_edited_user":"DWARREN","last_edited_date":1414508309000,"source_id":"{2C63A96F-7D32-43F3-BAB2-E6781A784FFF}","source_name":"NPS Buildings Database"},"geometry":{"type":"Point","coordinates":[-86.089341,37.1840397]}}
,
{"type":"Feature","properties":{"OBJECTID":3517,"unit_code":"MACA","name":"Bldg 069, Wood Land 2 - Room Cottage","feature_category":"Lodge/Motel/Hotel","comments":"Bldg. Lodge/Motel (GSF)","GlobalID":"{65058500-6739-4DA2-A2B1-27FB2232BC13}","created_user":"DWARREN","created_date":1414508309000,"last_edited_user":"DWARREN","last_edited_date":1414508309000,"source_id":"{532B5853-2C2D-4D71-9F6A-A2C40623B1A4}","source_name":"NPS Buildings Database"},"geometry":{"type":"Point","coordinates":[-86.1006402,37.1889191]}}
,
{"type":"Feature","properties":{"OBJECTID":3518,"unit_code":"MACA","name":"Bldg 044, Residence #44 (VIP House)","feature_category":"Housing Single Family","comments":"Bldg. House Single Fam (GSF)","GlobalID":"{E34F7403-0FA6-498F-9513-8B94C4F58B01}","created_user":"DWARREN","created_date":1414508309000,"last_edited_user":"DWARREN","last_edited_date":1414508309000,"source_id":"{FD73293F-7641-4DC0-8ABF-5B1A6DB70FC7}","source_name":"NPS Buildings Database"},"geometry":{"type":"Point","coordinates":[-86.0885666,37.1831208]}}
,
{"type":"Feature","properties":{"OBJECTID":3519,"unit_code":"MACA","name":"Bldg 206, Sunset Point Lodge (10 units)","feature_category":"Lodge/Motel/Hotel","comments":"Bldg. Lodge/Motel (GSF)","GlobalID":"{AF505BFC-0935-4D05-8200-74E3EA287615}","created_user":"DWARREN","created_date":1414508309000,"last_edited_user":"DWARREN","last_edited_date":1414508309000,"source_id":"{4AB35B19-5145-4712-A4C7-79D371659CD8}","source_name":"NPS Buildings Database"},"geometry":{"type":"Point","coordinates":[-86.1042616,37.1857293]}}
,
{"type":"Feature","properties":{"OBJECTID":3520,"unit_code":"MACA","name":"Bldg 412, Lift Station - Sunset Point","feature_category":"Pump House","comments":"Bldg. Pump / House (GSF)","GlobalID":"{8709A702-ACF6-479A-AAF1-085A296134D9}","created_user":"DWARREN","created_date":1414508309000,"last_edited_user":"DWARREN","last_edited_date":1414508309000,"source_id":"{AA56BC51-D799-4A88-A6F3-A32D075A47E8}","source_name":"NPS Buildings Database"},"geometry":{"type":"Point","coordinates":[-86.1050256,37.1859463]}}
,
{"type":"Feature","properties":{"OBJECTID":3521,"unit_code":"MACA","name":"Bldg 029, CCC  Constructed Housing Unit","feature_category":"Office","comments":"Bldg. Office (GSF)","GlobalID":"{4F7B47C8-4739-4CE6-89BC-A332C8A2226E}","created_user":"DWARREN","created_date":1414508309000,"last_edited_user":"DWARREN","last_edited_date":1414508309000,"source_id":"{5490EC9F-8F59-4F4B-BA85-54D95007A31D}","source_name":"NPS Buildings Database"},"geometry":{"type":"Point","coordinates":[-86.089167,37.183818]}}
,
{"type":"Feature","properties":{"OBJECTID":3522,"unit_code":"MACA","name":"Bldg 082, Wood Land 2 - Room Cottage","feature_category":"Lodge/Motel/Hotel","comments":"Bldg. Lodge/Motel (GSF)","GlobalID":"{7DB168B2-A506-4E55-AC09-BC8463854BD5}","created_user":"DWARREN","created_date":1414508309000,"last_edited_user":"DWARREN","last_edited_date":1414508309000,"source_id":"{E54E01E0-7BEC-428F-BE3E-0D9FD00797F4}","source_name":"NPS Buildings Database"},"geometry":{"type":"Point","coordinates":[-86.100349,37.1887735]}}
,
{"type":"Feature","properties":{"OBJECTID":3523,"unit_code":"MACA","name":"Bldg 308, Picnic Shelter-Houchins Ferry","feature_category":"Maintenance Shed","comments":"Bldg. Shed/Outbuilding (GSF)","GlobalID":"{71E91F61-DD93-446C-A63A-026F83E1E0F3}","created_user":"DWARREN","created_date":1414508309000,"last_edited_user":"DWARREN","last_edited_date":1414508309000,"source_id":"{3A97496B-F644-4F40-93AF-07CB3AE6D315}","source_name":"NPS Buildings Database"},"geometry":{"type":"Point","coordinates":[-86.2370317,37.2020093]}}
,
{"type":"Feature","properties":{"OBJECTID":3524,"unit_code":"MACA","name":"Bldg 425, Concession Dog Kennel","feature_category":"Stable","comments":"Bldg. Barn Stable (GSF)","GlobalID":"{3039FD56-A649-4647-A2B9-B62D570BC983}","created_user":"DWARREN","created_date":1414508309000,"last_edited_user":"DWARREN","last_edited_date":1414508309000,"source_id":"{057B6D0E-100B-4372-A979-E042A35A6F7E}","source_name":"NPS Buildings Database"},"geometry":{"type":"Point","coordinates":[-86.1023552,37.1845886]}}
,
{"type":"Feature","properties":{"OBJECTID":3525,"unit_code":"MACA","name":"Bldg 407, Phone Building at Seasonal Quarters","feature_category":"Housing Support Building","comments":"Bldg. Housing, Support (GSF)","GlobalID":"{8D0F522C-0A01-4876-A1E0-FE2F4EDFE91B}","created_user":"DWARREN","created_date":1414508309000,"last_edited_user":"DWARREN","last_edited_date":1414508309000,"source_id":"{BB2D3559-CE8E-4178-9166-93C3B9BC4B28}","source_name":"NPS Buildings Database"},"geometry":{"type":"Point","coordinates":[-86.0867515,37.1808132]}}
,
{"type":"Feature","properties":{"OBJECTID":3526,"unit_code":"MACA","name":"Bldg 427, Good Spring Church","feature_category":"Auditorium","comments":"Bldg. Auditorium (GSF)","GlobalID":"{DFD4E0D6-581A-4A79-BC64-49F385D35396}","created_user":"DWARREN","created_date":1414508309000,"last_edited_user":"DWARREN","last_edited_date":1414508309000,"source_id":"{8BF18868-05A8-49A0-B4A5-B289269C6D20}","source_name":"NPS Buildings Database"},"geometry":{"type":"Point","coordinates":[-86.1471678,37.2088334]}}
,
{"type":"Feature","properties":{"OBJECTID":3527,"unit_code":"MACA","name":"Bldg 009  Deluxe Guest Cottage (Hotel)","feature_category":"Lodge/Motel/Hotel","comments":"Bldg. Lodge/Motel (GSF)","GlobalID":"{D436F6AA-BDFF-4042-BBFA-EC091EC0A4B3}","created_user":"DWARREN","created_date":1414508309000,"last_edited_user":"DWARREN","last_edited_date":1414508309000,"source_id":"{70504C39-FFF4-47DB-936E-6F80C7673004}","source_name":"NPS Buildings Database"},"geometry":{"type":"Point","coordinates":[-86.1011797,37.1843295]}}
,
{"type":"Feature","properties":{"OBJECTID":3528,"unit_code":"MACA","name":"Bldg 013  Deluxe Guest Cottage (Hotel)","feature_category":"Lodge/Motel/Hotel","comments":"Bldg. Lodge/Motel (GSF)","GlobalID":"{1CAF6CAF-4D76-4FE8-90E2-E5C6C64A9659}","created_user":"DWARREN","created_date":1414508309000,"last_edited_user":"DWARREN","last_edited_date":1414508309000,"source_id":"{C52C0AED-5E16-45A1-911D-545CC08D1BF1}","source_name":"NPS Buildings Database"},"geometry":{"type":"Point","coordinates":[-86.1008842,37.1840364]}}
,
{"type":"Feature","properties":{"OBJECTID":3529,"unit_code":"MACA","name":"Q-00000021 Bldg 021, Maple Springs Quarters","feature_category":"Housing Single Family","comments":"Bldg. House Single Fam (GSF)","GlobalID":"{984A6E1A-27C9-4D9B-8297-EFDED84A8D4E}","created_user":"DWARREN","created_date":1414508309000,"last_edited_user":"DWARREN","last_edited_date":1414508309000,"source_id":"{6F83AAB0-3E19-4FD9-A0A1-3B4FBE69753E}","source_name":"NPS Buildings Database"},"geometry":{"type":"Point","coordinates":[-86.1319018,37.2070623]}}
,
{"type":"Feature","properties":{"OBJECTID":3530,"unit_code":"MACA","name":"Bldg 303, Picnic Shelter-EE Classroom","feature_category":"Nature Center","comments":"Bldg.Environment Ed. Ctr (GSF)","GlobalID":"{D8F5E17D-79D4-48FC-85E1-502CE4BF21F2}","created_user":"DWARREN","created_date":1414508309000,"last_edited_user":"DWARREN","last_edited_date":1414508309000,"source_id":"{D0913075-CFF0-4E7D-B528-C22B0C0C8A4D}","source_name":"NPS Buildings Database"},"geometry":{"type":"Point","coordinates":[-86.102554,37.1909823]}}
,
{"type":"Feature","properties":{"OBJECTID":3531,"unit_code":"MACA","name":"Bldg 008  Deluxe Guest Cottage (Hotel)","feature_category":"Lodge/Motel/Hotel","comments":"Bldg. Lodge/Motel (GSF)","GlobalID":"{1B997EE5-006D-45D9-88EB-7A49699B4834}","created_user":"DWARREN","created_date":1414508309000,"last_edited_user":"DWARREN","last_edited_date":1414508309000,"source_id":"{631FE455-DBD8-4D01-BE93-FB3E2D0ED7F6}","source_name":"NPS Buildings Database"},"geometry":{"type":"Point","coordinates":[-86.1011769,37.1844253]}}
,
{"type":"Feature","properties":{"OBJECTID":3532,"unit_code":"MACA","name":"Bldg 011  Deluxe Guest Cottage (Hotel)","feature_category":"Lodge/Motel/Hotel","comments":"Bldg. Lodge/Motel (GSF)","GlobalID":"{21C71ED2-A28E-46EA-B548-A8F0A5AECADB}","created_user":"DWARREN","created_date":1414508309000,"last_edited_user":"DWARREN","last_edited_date":1414508309000,"source_id":"{CC989AC1-4559-4327-845F-A542DCCD069D}","source_name":"NPS Buildings Database"},"geometry":{"type":"Point","coordinates":[-86.1011062,37.1841356]}}
,
{"type":"Feature","properties":{"OBJECTID":3533,"unit_code":"MACA","name":"Bldg 306, Maple Springs Bunkhouse","feature_category":"Dormitories/ Barracks","comments":"Bldg. Dormitory, Barrack (GSF)","GlobalID":"{62AEFBA9-7BC3-467D-958F-B6BC2DC4D79C}","created_user":"DWARREN","created_date":1414508309000,"last_edited_user":"DWARREN","last_edited_date":1414508309000,"source_id":"{DF3DE90B-1310-442D-AC98-ADDD52633D16}","source_name":"NPS Buildings Database"},"geometry":{"type":"Point","coordinates":[-86.1324533,37.207144]}}
,
{"type":"Feature","properties":{"OBJECTID":3534,"unit_code":"MACA","name":"Bldg 068, Wood Land 2 - Room Cottage","feature_category":"Lodge/Motel/Hotel","comments":"Bldg. Lodge/Motel (GSF)","GlobalID":"{02A71A8D-2864-47E7-9BCF-DB64A2B6E088}","created_user":"DWARREN","created_date":1414508309000,"last_edited_user":"DWARREN","last_edited_date":1414508309000,"source_id":"{56BF7A02-3380-4550-812E-9A5BC1F93D89}","source_name":"NPS Buildings Database"},"geometry":{"type":"Point","coordinates":[-86.1008078,37.1889488]}}
,
{"type":"Feature","properties":{"OBJECTID":3535,"unit_code":"MACA","name":"Bldg 333, Curatorial Storage","feature_category":"Museum","comments":"Bldg. Museum Repository (GSF)","GlobalID":"{5FC2B7CE-90F8-49D0-A4EB-47C61CCF4FCA}","created_user":"DWARREN","created_date":1414508309000,"last_edited_user":"DWARREN","last_edited_date":1414508309000,"source_id":"{538377F9-8FA1-4B08-B02C-A3BCDA19015A}","source_name":"NPS Buildings Database"},"geometry":{"type":"Point","coordinates":[-86.0853409,37.1798275]}}
,
{"type":"Feature","properties":{"OBJECTID":3536,"unit_code":"MACA","name":"Bldg 041, Superintendents Office","feature_category":"Office","comments":"Bldg. Office (GSF)","GlobalID":"{8C0B48CF-B4FE-4952-98CE-6ECA49329A45}","created_user":"DWARREN","created_date":1414508309000,"last_edited_user":"DWARREN","last_edited_date":1414508309000,"source_id":"{9AFCC743-D343-4F12-A568-0C998204C4DC}","source_name":"NPS Buildings Database"},"geometry":{"type":"Point","coordinates":[-86.0868025,37.1831746]}}
,
{"type":"Feature","properties":{"OBJECTID":3537,"unit_code":"MACA","name":"Q-00000099 Bldg 099, Seasonal Apartment #99","feature_category":"Housing Apartment","comments":"Bldg. Apartment (GSF)","GlobalID":"{19466A4F-AC33-4A6E-82D6-440B9618FDD7}","created_user":"DWARREN","created_date":1414508309000,"last_edited_user":"DWARREN","last_edited_date":1414508309000,"source_id":"{DBA5C402-3254-437A-A525-826100FECF51}","source_name":"NPS Buildings Database"},"geometry":{"type":"Point","coordinates":[-86.0869071,37.1812999]}}
,
{"type":"Feature","properties":{"OBJECTID":3538,"unit_code":"MACA","name":"Bldg 005, Visitor Center/Admin","feature_category":"Visitor Center","comments":"Bldg. Visitor Center (GSF)","GlobalID":"{3AD60C10-0633-413B-954F-ED71C328248D}","created_user":"DWARREN","created_date":1414508309000,"last_edited_user":"DWARREN","last_edited_date":1414508309000,"source_id":"{6584381C-C73E-494C-B858-D9FC8F9AD3FD}","source_name":"NPS Buildings Database"},"geometry":{"type":"Point","coordinates":[-86.1014432,37.1869793]}}
,
{"type":"Feature","properties":{"OBJECTID":3539,"unit_code":"MACA","name":"Bldg 433, Windstream Telephone Equipment Building","feature_category":"Communication System","comments":"Bldg. Communications Sys (GSF)","GlobalID":"{A5BBC1FF-1E6C-46DE-AF58-64E5DDFE3B4E}","created_user":"DWARREN","created_date":1414508309000,"last_edited_user":"DWARREN","last_edited_date":1414508309000,"source_id":"{3601F52B-03D8-40B8-AAE2-40908FE26236}","source_name":"NPS Buildings Database"},"geometry":{"type":"Point","coordinates":[-86.0984767,37.183483]}}
,
{"type":"Feature","properties":{"OBJECTID":3540,"unit_code":"MACA","name":"Q-00000098 Bldg 098, Seasonal Apartment #98","feature_category":"Housing Apartment","comments":"Bldg. Apartment (GSF)","GlobalID":"{86CDB9A0-46F4-4634-9BB6-681B47E0CE57}","created_user":"DWARREN","created_date":1414508309000,"last_edited_user":"DWARREN","last_edited_date":1414508309000,"source_id":"{016FEA25-B1B7-40CF-A4FA-7F25FE3C6BA4}","source_name":"NPS Buildings Database"},"geometry":{"type":"Point","coordinates":[-86.0868796,37.1809672]}}
,
{"type":"Feature","properties":{"OBJECTID":3541,"unit_code":"MACA","name":"Bldg 065, Craft Shop","feature_category":"Maintenance","comments":"Bldg. Service Shop/Maint (GSF)","GlobalID":"{18AF7C9B-4F5C-4AC3-89F2-1F93A7A23C79}","created_user":"DWARREN","created_date":1414508309000,"last_edited_user":"DWARREN","last_edited_date":1414508309000,"source_id":"{BC1E8C60-0A88-4851-B0EC-48ACD40D88A6}","source_name":"NPS Buildings Database"},"geometry":{"type":"Point","coordinates":[-86.0851604,37.1795685]}}
,
{"type":"Feature","properties":{"OBJECTID":3542,"unit_code":"MACA","name":"Bldg 024, Three Springs Pump House","feature_category":"Pump House","comments":"Bldg. Pump / House (GSF)","GlobalID":"{DE585195-1E71-4976-B566-C1E271DC657B}","created_user":"DWARREN","created_date":1414508309000,"last_edited_user":"DWARREN","last_edited_date":1414508309000,"source_id":"{B3CB7D00-E5F5-4AD4-9367-FF11D57227BF}","source_name":"NPS Buildings Database"},"geometry":{"type":"Point","coordinates":[-86.0835076,37.1956982]}}
,
{"type":"Feature","properties":{"OBJECTID":3543,"unit_code":"MACA","name":"Bldg 049, Comfort Station, Campground Loop A","feature_category":"Comfort Station","comments":"Bldg. Comfort Station (GSF)","GlobalID":"{D8564A88-4DF0-457D-B1AF-71BF1A9C3C72}","created_user":"DWARREN","created_date":1414508309000,"last_edited_user":"DWARREN","last_edited_date":1414508309000,"source_id":"{20422924-39AF-455C-898C-297061CBC694}","source_name":"NPS Buildings Database"},"geometry":{"type":"Point","coordinates":[-86.0964921,37.1825222]}}
,
{"type":"Feature","properties":{"OBJECTID":3544,"unit_code":"MACA","name":"Bldg 050, Comfort Station Campground Loop C","feature_category":"Comfort Station","comments":"Bldg. Comfort Station (GSF)","GlobalID":"{F9266F9E-E92C-45BE-AFC2-EB4BC3CD37D5}","created_user":"DWARREN","created_date":1414508309000,"last_edited_user":"DWARREN","last_edited_date":1414508309000,"source_id":"{DE02D6B7-9697-4497-9759-C186AB4E29AF}","source_name":"NPS Buildings Database"},"geometry":{"type":"Point","coordinates":[-86.0979617,37.1810549]}}
,
{"type":"Feature","properties":{"OBJECTID":3545,"unit_code":"MACA","name":"Bldg 077, Wood Land 2 - Room Cottage","feature_category":"Lodge/Motel/Hotel","comments":"Bldg. Lodge/Motel (GSF)","GlobalID":"{CA2E4EA9-108C-4843-B510-8E14299A4E84}","created_user":"DWARREN","created_date":1414508309000,"last_edited_user":"DWARREN","last_edited_date":1414508309000,"source_id":"{548ADC6B-B2B9-4787-AE2C-AE3146DB9805}","source_name":"NPS Buildings Database"},"geometry":{"type":"Point","coordinates":[-86.100469,37.1888972]}}
,
{"type":"Feature","properties":{"OBJECTID":3546,"unit_code":"MACA","name":"Bldg 083, Wood Land Cottage","feature_category":"Lodge/Motel/Hotel","comments":"Bldg. Lodge/Motel (GSF)","GlobalID":"{2933CDD9-E63E-4211-8159-903A561C72AC}","created_user":"DWARREN","created_date":1414508309000,"last_edited_user":"DWARREN","last_edited_date":1414508309000,"source_id":"{44713F45-1A28-4101-8AF2-B0DC49800AFD}","source_name":"NPS Buildings Database"},"geometry":{"type":"Point","coordinates":[-86.1009617,37.1890909]}}
,
{"type":"Feature","properties":{"OBJECTID":3547,"unit_code":"MACA","name":"Bldg 010  Deluxe Guest Cottage (Hotel)","feature_category":"Lodge/Motel/Hotel","comments":"Bldg. Lodge/Motel (GSF)","GlobalID":"{AC44F506-426D-4C2B-8B64-E5088510DE22}","created_user":"DWARREN","created_date":1414508309000,"last_edited_user":"DWARREN","last_edited_date":1414508309000,"source_id":"{A5A3FC2A-CD12-4AE4-8390-865A9B5F3437}","source_name":"NPS Buildings Database"},"geometry":{"type":"Point","coordinates":[-86.1011665,37.1842334]}}
,
{"type":"Feature","properties":{"OBJECTID":3548,"unit_code":"MACA","name":"Bldg 446, Bus Drivers Booth at Fueling Station","feature_category":"Maintenance Shed","comments":"Bldg. Shed/Outbuilding (GSF)","GlobalID":"{7748D50C-5D7E-47DB-9A96-665742216960}","created_user":"DWARREN","created_date":1414508309000,"last_edited_user":"DWARREN","last_edited_date":1414508309000,"source_id":"{3EAF67BC-5A98-4575-8D90-5C34BDB5AB53}","source_name":"NPS Buildings Database"},"geometry":{"type":"Point","coordinates":[-86.0858957,37.1811914]}}
,
{"type":"Feature","properties":{"OBJECTID":3549,"unit_code":"MACA","name":"Bldg 026,  Pumphouse Echo River Trail","feature_category":"Maintenance","comments":"Bldg. Sewage Treatment (GSF)","GlobalID":"{7BCDFE3E-FC7D-4016-B28E-AB7B1813B2DD}","created_user":"DWARREN","created_date":1414508309000,"last_edited_user":"DWARREN","last_edited_date":1414508309000,"source_id":"{92DEC993-F251-4F2F-A99A-1E5C496B31B6}","source_name":"NPS Buildings Database"},"geometry":{"type":"Point","coordinates":[-86.1086424,37.1833938]}}
,
{"type":"Feature","properties":{"OBJECTID":3550,"unit_code":"MACA","name":"Bldg 014  Deluxe Guest Cottage (Hotel)","feature_category":"Lodge/Motel/Hotel","comments":"Bldg. Lodge/Motel (GSF)","GlobalID":"{D55A3D71-54D3-429D-A687-FED5ABD60B15}","created_user":"DWARREN","created_date":1414508309000,"last_edited_user":"DWARREN","last_edited_date":1414508309000,"source_id":"{E3E6547B-BC90-4898-87CE-1502C3B384C4}","source_name":"NPS Buildings Database"},"geometry":{"type":"Point","coordinates":[-86.1007551,37.1840429]}}
,
{"type":"Feature","properties":{"OBJECTID":3551,"unit_code":"MACA","name":"Bldg 073, Crystal Cave (Floyd Collins) Ticket Office","feature_category":"Cultural Center","comments":"Bldg. Cultural Ctr","GlobalID":"{73BCE740-C1C0-4BB1-8954-121EF40F6E68}","created_user":"DWARREN","created_date":1414508309000,"last_edited_user":"DWARREN","last_edited_date":1414508309000,"source_id":"{E0B0EE0F-B856-407B-81F7-521FC56E6627}","source_name":"NPS Buildings Database"},"geometry":{"type":"Point","coordinates":[-86.0541627,37.2108147]}}
,
{"type":"Feature","properties":{"OBJECTID":3552,"unit_code":"MACA","name":"Bldg 037, Interpretation & Fee Program Offices","feature_category":"Office","comments":"Bldg. Office (GSF)","GlobalID":"{9447BF29-D5CC-42A8-8FA4-2D1367E95717}","created_user":"DWARREN","created_date":1414508309000,"last_edited_user":"DWARREN","last_edited_date":1414508309000,"source_id":"{8F224608-70B2-4255-B963-21006DCC84C1}","source_name":"NPS Buildings Database"},"geometry":{"type":"Point","coordinates":[-86.0885674,37.1839976]}}
,
{"type":"Feature","properties":{"OBJECTID":3553,"unit_code":"MACA","name":"Bldg 046, Pump House, Mt. McKinley","feature_category":"Pump House","comments":"Bldg. Pump / House (GSF)","GlobalID":"{8C4804D4-A732-4518-A7F0-F2B3D46D0C96}","created_user":"DWARREN","created_date":1414508309000,"last_edited_user":"DWARREN","last_edited_date":1414508309000,"source_id":"{208F971C-2E22-4454-A158-7D97A862BEA7}","source_name":"NPS Buildings Database"},"geometry":{"type":"Point","coordinates":[-86.0703904,37.1567605]}}
,
{"type":"Feature","properties":{"OBJECTID":3554,"unit_code":"MACA","name":"Bldg 033, CCC Constructed Housing Unit","feature_category":"Office","comments":"Bldg. Office (GSF)","GlobalID":"{E7327597-AF0F-436E-9A85-B5185C3F779C}","created_user":"DWARREN","created_date":1414508309000,"last_edited_user":"DWARREN","last_edited_date":1414508309000,"source_id":"{6CC2E7F6-CFE1-4D90-BCCC-655870240A30}","source_name":"NPS Buildings Database"},"geometry":{"type":"Point","coordinates":[-86.089316,37.1835071]}}
,
{"type":"Feature","properties":{"OBJECTID":3555,"unit_code":"MACA","name":"Bldg 102, Equipment Storage Building- Salvage Yard","feature_category":"Maintenance Shed","comments":"Bldg. Shed/Outbuilding (GSF)","GlobalID":"{F72A3BDE-82FE-41EC-9375-AD5C54A4695F}","created_user":"DWARREN","created_date":1414508309000,"last_edited_user":"DWARREN","last_edited_date":1414508309000,"source_id":"{0566D068-4B1B-49D2-984F-8689A50779FE}","source_name":"NPS Buildings Database"},"geometry":{"type":"Point","coordinates":[-86.0848741,37.1791247]}}
,
{"type":"Feature","properties":{"OBJECTID":3556,"unit_code":"MACA","name":"Bldg 043, Eastern National Office","feature_category":"Office","comments":"Bldg. Office (GSF)","GlobalID":"{1CAA3340-9CDB-494E-AEA0-5DEA0BCB09F8}","created_user":"DWARREN","created_date":1414508309000,"last_edited_user":"DWARREN","last_edited_date":1414508309000,"source_id":"{F0CD42A1-7E52-4FD2-892F-B9CDAC7BEA06}","source_name":"NPS Buildings Database"},"geometry":{"type":"Point","coordinates":[-86.0884045,37.1827695]}}
,
{"type":"Feature","properties":{"OBJECTID":3557,"unit_code":"MACA","name":"Bldg 302, Bus Shelter","feature_category":"Maintenance Shed","comments":"Bldg. Shed/Outbuilding (GSF)","GlobalID":"{FC524DE3-8948-4252-8B6B-383CC971B901}","created_user":"DWARREN","created_date":1414508309000,"last_edited_user":"DWARREN","last_edited_date":1414508309000,"source_id":"{97B95AFA-DA5C-4CCC-B7DB-FFBFCA75CC21}","source_name":"NPS Buildings Database"},"geometry":{"type":"Point","coordinates":[-86.1015251,37.1872324]}}
,
{"type":"Feature","properties":{"OBJECTID":3558,"unit_code":"MACA","name":"Bldg 060, Paint Shop","feature_category":"Maintenance","comments":"Bldg. Service Shop/Maint (GSF)","GlobalID":"{D65E7837-6ECE-416E-8F51-93792CD5388D}","created_user":"DWARREN","created_date":1414508309000,"last_edited_user":"DWARREN","last_edited_date":1414508309000,"source_id":"{504BCF96-21FD-42C8-93BD-8F3A53B92867}","source_name":"NPS Buildings Database"},"geometry":{"type":"Point","coordinates":[-86.0862622,37.1803378]}}
,
{"type":"Feature","properties":{"OBJECTID":3559,"unit_code":"MACA","name":"Q-00000042 Bldg 042, Residence #42","feature_category":"Office","comments":"Bldg. Office (GSF)","GlobalID":"{2EF22E70-0465-4665-825E-A89696B2F87C}","created_user":"DWARREN","created_date":1414508309000,"last_edited_user":"DWARREN","last_edited_date":1414508309000,"source_id":"{A72FB45A-AE65-428F-A067-E354653A4BAC}","source_name":"NPS Buildings Database"},"geometry":{"type":"Point","coordinates":[-86.0871586,37.1829478]}}
,
{"type":"Feature","properties":{"OBJECTID":3560,"unit_code":"MACA","name":"Bldg 032, CCC Constructed Housing Unit","feature_category":"Office","comments":"Bldg. Office (GSF)","GlobalID":"{6D6B9197-6E9F-439F-BAE5-9550A46AA16B}","created_user":"DWARREN","created_date":1414508309000,"last_edited_user":"DWARREN","last_edited_date":1414508309000,"source_id":"{5754CDA8-A9E3-4933-9E63-D7B0293FDE32}","source_name":"NPS Buildings Database"},"geometry":{"type":"Point","coordinates":[-86.0897651,37.1835553]}}
,
{"type":"Feature","properties":{"OBJECTID":3561,"unit_code":"MACA","name":"Bldg 076, Wood Land 2 - Room Cottage","feature_category":"Lodge/Motel/Hotel","comments":"Bldg. Lodge/Motel (GSF)","GlobalID":"{3E99617A-2D90-441E-BA85-1EE833D97D29}","created_user":"DWARREN","created_date":1414508309000,"last_edited_user":"DWARREN","last_edited_date":1414508309000,"source_id":"{7BA36919-54B3-49AE-A89E-B95DA0548E5A}","source_name":"NPS Buildings Database"},"geometry":{"type":"Point","coordinates":[-86.1006447,37.1886017]}}
,
{"type":"Feature","properties":{"OBJECTID":3562,"unit_code":"MACA","name":"Bldg 201, Great Relief Restroom","feature_category":"Comfort Station","comments":"Bldg. Comfort Station (GSF)","GlobalID":"{EDC16380-A50B-4C41-8BCA-A8A0B2C57C62}","created_user":"DWARREN","created_date":1414508309000,"last_edited_user":"DWARREN","last_edited_date":1414508309000,"source_id":"{DFDBBBE5-A6FC-4AD5-BA36-C6B8772EFA01}","source_name":"NPS Buildings Database"},"geometry":{"type":"Point","coordinates":[-86.0985802,37.184395]}}
,
{"type":"Feature","properties":{"OBJECTID":3563,"unit_code":"MACA","name":"Bldg 078, Wood Land 2 - Room Cottage","feature_category":"Lodge/Motel/Hotel","comments":"Bldg. Lodge/Motel (GSF)","GlobalID":"{34C0091F-FCDA-470B-A789-AB0EE2A41D94}","created_user":"DWARREN","created_date":1414508309000,"last_edited_user":"DWARREN","last_edited_date":1414508309000,"source_id":"{33A8F5DE-DBFB-42A4-AE30-B66178A86A1F}","source_name":"NPS Buildings Database"},"geometry":{"type":"Point","coordinates":[-86.1004158,37.1890549]}}
,
{"type":"Feature","properties":{"OBJECTID":3564,"unit_code":"MACA","name":"Bldg 400, Doyle Valley Rapelling Building","feature_category":"Gymnasium","comments":"Bldg. Gym/ Recreational (GSF)","GlobalID":"{B1A0AD4E-D113-4802-9B8E-835E78E511CD}","created_user":"DWARREN","created_date":1414508309000,"last_edited_user":"DWARREN","last_edited_date":1414508309000,"source_id":"{642EB1F0-D75A-49B1-A25D-41016621F7BC}","source_name":"NPS Buildings Database"},"geometry":{"type":"Point","coordinates":[-86.0621397,37.1408764]}}
,
{"type":"Feature","properties":{"OBJECTID":3565,"unit_code":"MACA","name":"Bldg 025, Bransford Springs Pumphouse","feature_category":"Pump House","comments":"Bldg. Pump / House (GSF)","GlobalID":"{84F834D6-4BE0-43D0-89C2-CB65922B77E3}","created_user":"DWARREN","created_date":1414508309000,"last_edited_user":"DWARREN","last_edited_date":1414508309000,"source_id":"{1A403E96-A6E0-4603-A055-C33EC39E556F}","source_name":"NPS Buildings Database"},"geometry":{"type":"Point","coordinates":[-86.0768378,37.201524]}}
,
{"type":"Feature","properties":{"OBJECTID":3566,"unit_code":"MACA","name":"Bldg 310, Haz-Mat Collection Building","feature_category":"Maintenance Shed","comments":"Bldg. Shed/Outbuilding (GSF)","GlobalID":"{DDCECB71-7AEB-4009-B79E-44A810D1AA1B}","created_user":"DWARREN","created_date":1414508309000,"last_edited_user":"DWARREN","last_edited_date":1414508309000,"source_id":"{286264E4-8BC5-4D17-98AF-C9C6C72AF459}","source_name":"NPS Buildings Database"},"geometry":{"type":"Point","coordinates":[-86.0845256,37.1791533]}}
,
{"type":"Feature","properties":{"OBJECTID":3567,"unit_code":"MACA","name":"Bldg 074, Floyd Collins House","feature_category":"Cultural Center","comments":"Bldg. Cultural Ctr (GSF)","GlobalID":"{6F9539AA-5CD5-4A76-BF33-A437BD2AC3E2}","created_user":"DWARREN","created_date":1414508309000,"last_edited_user":"DWARREN","last_edited_date":1414508309000,"source_id":"{3775F6CE-BEBD-4D00-A8B5-D91CC699AFC8}","source_name":"NPS Buildings Database"},"geometry":{"type":"Point","coordinates":[-86.0544908,37.2109782]}}
,
{"type":"Feature","properties":{"OBJECTID":3568,"unit_code":"MACA","name":"Bldg 017  Deluxe Guest Cottage (Hotel)","feature_category":"Lodge/Motel/Hotel","comments":"Bldg. Lodge/Motel (GSF)","GlobalID":"{7FCB76F3-49B8-47A4-A861-C79CEE1739F8}","created_user":"DWARREN","created_date":1414508309000,"last_edited_user":"DWARREN","last_edited_date":1414508309000,"source_id":"{68CD66E7-F7A3-45E8-B632-D69EA5BE7E2E}","source_name":"NPS Buildings Database"},"geometry":{"type":"Point","coordinates":[-86.1005121,37.184268]}}
,
{"type":"Feature","properties":{"OBJECTID":3569,"unit_code":"MACA","name":"Bldg 322, Maple Springs Barn","feature_category":"Maintenance Shed","comments":"Bldg. Shed/Outbuilding (GSF)","GlobalID":"{FE542681-FE97-41A1-AB0D-583A903308EF}","created_user":"DWARREN","created_date":1414508309000,"last_edited_user":"DWARREN","last_edited_date":1414508309000,"source_id":"{DA2A7FE9-FECD-40E3-9C62-F01981522ACB}","source_name":"NPS Buildings Database"},"geometry":{"type":"Point","coordinates":[-86.1323618,37.2075853]}}
,
{"type":"Feature","properties":{"OBJECTID":3570,"unit_code":"MACA","name":"Bldg 048, Comfort Station Campground loop D","feature_category":"Comfort Station","comments":"Bldg. Comfort Station (GSF)","GlobalID":"{A9134CFB-A1EA-49C5-A32B-6448B562C4E7}","created_user":"DWARREN","created_date":1414508309000,"last_edited_user":"DWARREN","last_edited_date":1414508309000,"source_id":"{4C01BB09-DEB1-4D76-BA82-CE17C55D7F71}","source_name":"NPS Buildings Database"},"geometry":{"type":"Point","coordinates":[-86.098352,37.1821327]}}
,
{"type":"Feature","properties":{"OBJECTID":3571,"unit_code":"MACA","name":"Bldg 040, Administration & Human Resource Office","feature_category":"Office","comments":"Bldg. Office (GSF)","GlobalID":"{46AF9096-27F4-4C38-9B4A-EB317157529D}","created_user":"DWARREN","created_date":1414508309000,"last_edited_user":"DWARREN","last_edited_date":1414508309000,"source_id":"{F35DB993-D739-4717-A6D8-93BF08E0995C}","source_name":"NPS Buildings Database"},"geometry":{"type":"Point","coordinates":[-86.0873383,37.1836457]}}
,
{"type":"Feature","properties":{"OBJECTID":3572,"unit_code":"MACA","name":"Bldg 087, Wood Land Cottage","feature_category":"Lodge/Motel/Hotel","comments":"Bldg. Lodge/Motel (GSF)","GlobalID":"{3D3FE7EA-76C2-4CC7-80B9-2E58B18D1B00}","created_user":"DWARREN","created_date":1414508309000,"last_edited_user":"DWARREN","last_edited_date":1414508309000,"source_id":"{AEFF9634-F9CA-4A70-AE78-6D827FF3A037}","source_name":"NPS Buildings Database"},"geometry":{"type":"Point","coordinates":[-86.1007974,37.1894605]}}
,
{"type":"Feature","properties":{"OBJECTID":3573,"unit_code":"MACA","name":"Bldg 203, Elevator Building","feature_category":"Cultural Center","comments":"Bldg. Cultural Ctr (GSF)","GlobalID":"{5E60A304-6BAC-4E9B-AB96-7FD061B16A76}","created_user":"DWARREN","created_date":1414508309000,"last_edited_user":"DWARREN","last_edited_date":1414508309000,"source_id":"{7A5E807D-0B06-42DE-8E4B-C5A809E98EBC}","source_name":"NPS Buildings Database"},"geometry":{"type":"Point","coordinates":[-86.0792029,37.1684133]}}
,
{"type":"Feature","properties":{"OBJECTID":3574,"unit_code":"MACA","name":"Bldg 437, Campground Kiosk","feature_category":"Contact Station","comments":"Bldg. Visitor Cont Stat (GSF)","GlobalID":"{8532C4E4-F681-493A-95FE-821B7F435A9F}","created_user":"DWARREN","created_date":1414508309000,"last_edited_user":"DWARREN","last_edited_date":1414508309000,"source_id":"{879FB588-BFB4-43A0-BDDD-6000A9D893D3}","source_name":"NPS Buildings Database"},"geometry":{"type":"Point","coordinates":[-86.0973216,37.1828978]}}
,
{"type":"Feature","properties":{"OBJECTID":3575,"unit_code":"MACA","name":"Bldg 323, Houchins Ferry Storage","feature_category":"Maintenance Shed","comments":"Bldg. Shed/Outbuilding (GSF)","GlobalID":"{24B4D01F-6CBB-47CE-90E8-0DAFF952A722}","created_user":"DWARREN","created_date":1414508309000,"last_edited_user":"DWARREN","last_edited_date":1414508309000,"source_id":"{65FA2DB0-8BB4-4EFC-94D3-3B65491E21F0}","source_name":"NPS Buildings Database"},"geometry":{"type":"Point","coordinates":[-86.2370742,37.2017093]}}
,
{"type":"Feature","properties":{"OBJECTID":3576,"unit_code":"MACA","name":"Bldg 202 - Sunset Lodge (10 units)","feature_category":"Lodge/Motel/Hotel","comments":"Bldg. Lodge/Motel (GSF)","GlobalID":"{4EB3A1DF-1AD7-4501-8FFE-2133C8BE4D2C}","created_user":"DWARREN","created_date":1414508309000,"last_edited_user":"DWARREN","last_edited_date":1414508309000,"source_id":"{C0FB6679-028A-47A7-8DD1-0319C61D0146}","source_name":"NPS Buildings Database"},"geometry":{"type":"Point","coordinates":[-86.1034156,37.1853064]}}
,
{"type":"Feature","properties":{"OBJECTID":3577,"unit_code":"MACA","name":"Bldg 324, Hotel Staff Lodging Dormitory","feature_category":"Dormitories/ Barracks","comments":"Bldg. Dormitory, Barrack (GSF)","GlobalID":"{9D7D8A8D-8F32-4D7A-9042-8B9CC676EC7B}","created_user":"DWARREN","created_date":1414508309000,"last_edited_user":"DWARREN","last_edited_date":1414508309000,"source_id":"{8FE01D1C-D236-4569-A260-89E166DE87D7}","source_name":"NPS Buildings Database"},"geometry":{"type":"Point","coordinates":[-86.1029167,37.1846011]}}
,
{"type":"Feature","properties":{"OBJECTID":3578,"unit_code":"MACA","name":"Bldg 208, General Store & Service Station","feature_category":"Store","comments":null,"GlobalID":"{BCEC4D2C-1974-4000-98F5-DB7119643284}","created_user":"DWARREN","created_date":1414508309000,"last_edited_user":"DWARREN","last_edited_date":1414508309000,"source_id":"{BD88063F-DE8A-43DC-8A8A-F052CB821510}","source_name":"NPS Buildings Database"},"geometry":{"type":"Point","coordinates":[-86.0979708,37.1836267]}}
,
{"type":"Feature","properties":{"OBJECTID":3579,"unit_code":"MACA","name":"Bldg 317, Comfort Station in Campground- Loop B Handicap","feature_category":"Comfort Station","comments":"Bldg. Comfort Station (GSF)","GlobalID":"{27232CF9-B623-4B2E-95B3-B85C6378D3A6}","created_user":"DWARREN","created_date":1414508309000,"last_edited_user":"DWARREN","last_edited_date":1414508309000,"source_id":"{DC581BC4-1BD6-425A-ACCA-7CB3E9439972}","source_name":"NPS Buildings Database"},"geometry":{"type":"Point","coordinates":[-86.0957658,37.1812983]}}
,
{"type":"Feature","properties":{"OBJECTID":3580,"unit_code":"MACA","name":"Bldg 415, Lift Station - Hotel Cottages","feature_category":"Pump House","comments":"Bldg. Pump / House (GSF)","GlobalID":"{B7309B6E-4E69-4C88-B68D-888044350CE1}","created_user":"DWARREN","created_date":1414508309000,"last_edited_user":"DWARREN","last_edited_date":1414508309000,"source_id":"{97219E76-880B-457B-9167-8A1DC2CB455F}","source_name":"NPS Buildings Database"},"geometry":{"type":"Point","coordinates":[-86.1016788,37.1845029]}}
,
{"type":"Feature","properties":{"OBJECTID":3581,"unit_code":"MACA","name":"Bldg 045, Mt. McKinley Cave Restroom","feature_category":"Comfort Station","comments":"Bldg. Comfort Station (GSF)","GlobalID":"{DB3C7DDD-8CA6-4C39-8C9C-9E0EDFC4E126}","created_user":"DWARREN","created_date":1414508309000,"last_edited_user":"DWARREN","last_edited_date":1414508309000,"source_id":"{AAEE3405-DEAC-4812-A780-E4E328400359}","source_name":"NPS Buildings Database"},"geometry":{"type":"Point","coordinates":[-86.0700176,37.1571718]}}
,
{"type":"Feature","properties":{"OBJECTID":3582,"unit_code":"MACA","name":"Bldg 075, Wood Land 1 - Room Cottage","feature_category":"Lodge/Motel/Hotel","comments":"Bldg. Lodge/Motel (GSF)","GlobalID":"{B38A65A6-2EAC-4DEB-A802-8783B737E51B}","created_user":"DWARREN","created_date":1414508309000,"last_edited_user":"DWARREN","last_edited_date":1414508309000,"source_id":"{409A079A-91A1-4630-8BCF-ABC26CE311BB}","source_name":"NPS Buildings Database"},"geometry":{"type":"Point","coordinates":[-86.1002846,37.188915]}}
,
{"type":"Feature","properties":{"OBJECTID":3583,"unit_code":"MACA","name":"Bldg 304, Picnic Shelter, Upper Area","feature_category":"Maintenance Shed","comments":"Bldg. Shed/Outbuilding (GSF)","GlobalID":"{58221967-02A7-49D8-93C4-B1A23C947069}","created_user":"DWARREN","created_date":1414508309000,"last_edited_user":"DWARREN","last_edited_date":1414508309000,"source_id":"{7EB2A6AB-E887-46E0-9854-3207BE2619E1}","source_name":"NPS Buildings Database"},"geometry":{"type":"Point","coordinates":[-86.1030363,37.1894455]}}
,
{"type":"Feature","properties":{"OBJECTID":3584,"unit_code":"MACA","name":"Bldg 016  Deluxe Guest Cottage (Hotel)","feature_category":"Lodge/Motel/Hotel","comments":"Bldg. Lodge/Motel (GSF)","GlobalID":"{CD57436C-841C-4E41-A823-D7B4039EB611}","created_user":"DWARREN","created_date":1414508309000,"last_edited_user":"DWARREN","last_edited_date":1414508309000,"source_id":"{586CD267-E4F3-44D5-94EF-648C4F562EA1}","source_name":"NPS Buildings Database"},"geometry":{"type":"Point","coordinates":[-86.100554,37.1841702]}}
,
{"type":"Feature","properties":{"OBJECTID":3585,"unit_code":"MACA","name":"Bldg 447, Charmichael Shelter","feature_category":"Maintenance Shed","comments":"Bldg. Shed/Outbuilding (GSF)","GlobalID":"{C80E7381-AB74-4D83-A229-E4620C66F5C3}","created_user":"DWARREN","created_date":1414508309000,"last_edited_user":"DWARREN","last_edited_date":1414508309000,"source_id":"{CECD6CB8-494D-4D6A-8EB7-28DE4B7F56EC}","source_name":"NPS Buildings Database"},"geometry":{"type":"Point","coordinates":[-86.091801,37.1675096]}}
,
{"type":"Feature","properties":{"OBJECTID":3586,"unit_code":"MACA","name":"Bldg 059, Automotive Mechanical Garage","feature_category":"Place of Interest","comments":null,"GlobalID":"{17B98948-1100-4600-AA6B-104792A38FF8}","created_user":"DWARREN","created_date":1414508309000,"last_edited_user":"DWARREN","last_edited_date":1414508309000,"source_id":null,"source_name":"DSC Park Atlas"},"geometry":{"type":"Point","coordinates":[-86.0859091,37.1803376]}}
,
{"type":"Feature","properties":{"OBJECTID":3587,"unit_code":"MACA","name":"Bldg 406, Raptor Aviary","feature_category":"Place of Interest","comments":null,"GlobalID":"{8FB7A63C-FD74-45A1-8E0F-0CC66EBC69DA}","created_user":"DWARREN","created_date":1414508309000,"last_edited_user":"DWARREN","last_edited_date":1414508309000,"source_id":null,"source_name":"DSC Park Atlas"},